{
"type": "FeatureCollection",
"name": "metro_regions_centroids.geo",
"crs": { "type": "name", "properties": { "name": "urn:ogc:def:crs:EPSG::4269" } },
"features": [
{ "type": "Feature", "properties": { "name": "New York-Newark-Jersey City, NY-NJ-PA", "population": 19908595.0 }, "geometry": { "type": "Point", "coordinates": [ -74.100434829040907, 40.769514168555723 ] } },
{ "type": "Feature", "properties": { "name": "Los Angeles-Long Beach-Anaheim, CA", "population": 13111917.0 }, "geometry": { "type": "Point", "coordinates": [ -118.149537009331922, 34.220809138750774 ] } },
{ "type": "Feature", "properties": { "name": "Chicago-Naperville-Elgin, IL-IN-WI", "population": 9566955.0 }, "geometry": { "type": "Point", "coordinates": [ -87.962846670406961, 41.702641338341699 ] } },
{ "type": "Feature", "properties": { "name": "Dallas-Fort Worth-Arlington, TX", "population": 7673379.0 }, "geometry": { "type": "Point", "coordinates": [ -96.970406762992809, 32.849515438698944 ] } },
{ "type": "Feature", "properties": { "name": "Houston-The Woodlands-Sugar Land, TX", "population": 7142603.0 }, "geometry": { "type": "Point", "coordinates": [ -95.401426887697383, 29.787712329953195 ] } },
{ "type": "Feature", "properties": { "name": "Washington-Arlington-Alexandria, DC-VA-MD-WV", "population": 6346083.0 }, "geometry": { "type": "Point", "coordinates": [ -77.512714651505362, 38.813496250744883 ] } },
{ "type": "Feature", "properties": { "name": "Philadelphia-Camden-Wilmington, PA-NJ-DE-MD", "population": 6232894.0 }, "geometry": { "type": "Point", "coordinates": [ -75.301985178380818, 39.905596924174709 ] } },
{ "type": "Feature", "properties": { "name": "Toronto, ON", "population": 6202225.0 }, "geometry": { "type": "Point", "coordinates": [ -79.380485380596255, 43.644547574971469 ] } },
{ "type": "Feature", "properties": { "name": "Miami-Fort Lauderdale-Pompano Beach, FL", "population": 6123949.0 }, "geometry": { "type": "Point", "coordinates": [ -80.505901894543513, 26.15724249310281 ] } },
{ "type": "Feature", "properties": { "name": "Atlanta-Sandy Springs-Alpharetta, GA", "population": 6094752.0 }, "geometry": { "type": "Point", "coordinates": [ -84.399568829165759, 33.692751856303168 ] } },
{ "type": "Feature", "properties": { "name": "Boston-Cambridge-Newton, MA-NH", "population": 4912449.0 }, "geometry": { "type": "Point", "coordinates": [ -71.100533068657313, 42.558132360706331 ] } },
{ "type": "Feature", "properties": { "name": "Phoenix-Mesa-Chandler, AZ", "population": 4864209.0 }, "geometry": { "type": "Point", "coordinates": [ -112.070664074996102, 33.18585118090423 ] } },
{ "type": "Feature", "properties": { "name": "San Francisco-Oakland-Berkeley, CA", "population": 4692242.0 }, "geometry": { "type": "Point", "coordinates": [ -122.167024992492514, 37.781007452303903 ] } },
{ "type": "Feature", "properties": { "name": "Riverside-San Bernardino-Ontario, CA", "population": 4610050.0 }, "geometry": { "type": "Point", "coordinates": [ -116.129711522218273, 34.551651740608172 ] } },
{ "type": "Feature", "properties": { "name": "Detroit-Warren-Dearborn, MI", "population": 4375604.0 }, "geometry": { "type": "Point", "coordinates": [ -83.232748943659828, 42.719242366958333 ] } },
{ "type": "Feature", "properties": { "name": "Montreal, QC", "population": 4291732.0 }, "geometry": { "type": "Point", "coordinates": [ -73.567047703334481, 45.500258726165697 ] } },
{ "type": "Feature", "properties": { "name": "Seattle-Tacoma-Bellevue, WA", "population": 4001701.0 }, "geometry": { "type": "Point", "coordinates": [ -121.850847758102773, 47.557491891119263 ] } },
{ "type": "Feature", "properties": { "name": "Minneapolis-St. Paul-Bloomington, MN-WI", "population": 3678328.0 }, "geometry": { "type": "Point", "coordinates": [ -93.275313638029743, 45.10338104692422 ] } },
{ "type": "Feature", "properties": { "name": "San Diego-Chula Vista-Carlsbad, CA", "population": 3289701.0 }, "geometry": { "type": "Point", "coordinates": [ -116.735038986932196, 33.034251312987379 ] } },
{ "type": "Feature", "properties": { "name": "Tampa-St. Petersburg-Clearwater, FL", "population": 3194310.0 }, "geometry": { "type": "Point", "coordinates": [ -82.405681105501756, 28.153589144701183 ] } },
{ "type": "Feature", "properties": { "name": "Denver-Aurora-Lakewood, CO", "population": 2959386.0 }, "geometry": { "type": "Point", "coordinates": [ -104.894439324019785, 39.433722349716085 ] } },
{ "type": "Feature", "properties": { "name": "Baltimore-Columbia-Towson, MD", "population": 2840005.0 }, "geometry": { "type": "Point", "coordinates": [ -76.580616716534422, 39.338477790884539 ] } },
{ "type": "Feature", "properties": { "name": "St. Louis, MO-IL", "population": 2813523.0 }, "geometry": { "type": "Point", "coordinates": [ -90.350114554617718, 38.735243910576941 ] } },
{ "type": "Feature", "properties": { "name": "Orlando-Kissimmee-Sanford, FL", "population": 2679298.0 }, "geometry": { "type": "Point", "coordinates": [ -81.363007115603921, 28.434330692168963 ] } },
{ "type": "Feature", "properties": { "name": "Charlotte-Concord-Gastonia, NC-SC", "population": 2668688.0 }, "geometry": { "type": "Point", "coordinates": [ -80.795375439202431, 35.168602517214943 ] } },
{ "type": "Feature", "properties": { "name": "Vancouver, BC", "population": 2642825.0 }, "geometry": { "type": "Point", "coordinates": [ -123.119120074923487, 49.281881881091586 ] } },
{ "type": "Feature", "properties": { "name": "San Antonio-New Braunfels, TX", "population": 2570862.0 }, "geometry": { "type": "Point", "coordinates": [ -98.602261649495986, 29.428740396930852 ] } },
{ "type": "Feature", "properties": { "name": "Portland-Vancouver-Hillsboro, OR-WA", "population": 2505312.0 }, "geometry": { "type": "Point", "coordinates": [ -122.478301980329547, 45.598370863714052 ] } },
{ "type": "Feature", "properties": { "name": "Sacramento-Roseville-Folsom, CA", "population": 2394673.0 }, "geometry": { "type": "Point", "coordinates": [ -120.997604285619531, 38.780448341935795 ] } },
{ "type": "Feature", "properties": { "name": "Pittsburgh, PA", "population": 2365501.0 }, "geometry": { "type": "Point", "coordinates": [ -79.830984440566723, 40.439165855957683 ] } },
{ "type": "Feature", "properties": { "name": "Austin-Round Rock-Georgetown, TX", "population": 2296377.0 }, "geometry": { "type": "Point", "coordinates": [ -97.654355493160253, 30.262241278054372 ] } },
{ "type": "Feature", "properties": { "name": "Las Vegas-Henderson-Paradise, NV", "population": 2265926.0 }, "geometry": { "type": "Point", "coordinates": [ -115.013505913344702, 36.215188989402179 ] } },
{ "type": "Feature", "properties": { "name": "Cincinnati, OH-KY-IN", "population": 2253528.0 }, "geometry": { "type": "Point", "coordinates": [ -84.481161712165232, 39.10068924882264 ] } },
{ "type": "Feature", "properties": { "name": "Kansas City, MO-KS", "population": 2190750.0 }, "geometry": { "type": "Point", "coordinates": [ -94.444370205477014, 38.937148507302098 ] } },
{ "type": "Feature", "properties": { "name": "Columbus, OH", "population": 2137223.0 }, "geometry": { "type": "Point", "coordinates": [ -82.836785065008954, 39.968126092902992 ] } },
{ "type": "Feature", "properties": { "name": "Indianapolis-Carmel-Anderson, IN", "population": 2109957.0 }, "geometry": { "type": "Point", "coordinates": [ -86.206143954526908, 39.747414789267111 ] } },
{ "type": "Feature", "properties": { "name": "Cleveland-Elyria, OH", "population": 2079759.0 }, "geometry": { "type": "Point", "coordinates": [ -81.683765567506356, 41.375167929600565 ] } },
{ "type": "Feature", "properties": { "name": "Nashville-Davidson--Murfreesboro--Franklin, TN", "population": 1990873.0 }, "geometry": { "type": "Point", "coordinates": [ -86.645225538647651, 36.119320588174382 ] } },
{ "type": "Feature", "properties": { "name": "San Jose-Sunnyvale-Santa Clara, CA", "population": 1981584.0 }, "geometry": { "type": "Point", "coordinates": [ -121.375908564262943, 36.909502187319468 ] } },
{ "type": "Feature", "properties": { "name": "Virginia Beach-Norfolk-Newport News, VA-NC", "population": 1798025.0 }, "geometry": { "type": "Point", "coordinates": [ -76.543014437149409, 36.785857445354679 ] } },
{ "type": "Feature", "properties": { "name": "Providence-Warwick, RI-MA", "population": 1670949.0 }, "geometry": { "type": "Point", "coordinates": [ -71.400008461547202, 41.718490229875897 ] } },
{ "type": "Feature", "properties": { "name": "Jacksonville, FL", "population": 1613587.0 }, "geometry": { "type": "Point", "coordinates": [ -81.792063808499321, 30.236770500791852 ] } },
{ "type": "Feature", "properties": { "name": "Milwaukee-Waukesha, WI", "population": 1568940.0 }, "geometry": { "type": "Point", "coordinates": [ -88.172483382734171, 43.176663399802109 ] } },
{ "type": "Feature", "properties": { "name": "Ottawa - Gatineau, ON-QC", "population": 1488307.0 }, "geometry": { "type": "Point", "coordinates": [ -75.699126304825612, 45.421327327656691 ] } },
{ "type": "Feature", "properties": { "name": "Calgary, AB", "population": 1481806.0 }, "geometry": { "type": "Point", "coordinates": [ -114.056716180669667, 51.046310534792177 ] } },
{ "type": "Feature", "properties": { "name": "Oklahoma City, OK", "population": 1428923.0 }, "geometry": { "type": "Point", "coordinates": [ -97.503853772911839, 35.429871499798494 ] } },
{ "type": "Feature", "properties": { "name": "Raleigh-Cary, NC", "population": 1420825.0 }, "geometry": { "type": "Point", "coordinates": [ -78.460836599252531, 35.757284526595079 ] } },
{ "type": "Feature", "properties": { "name": "Edmonton, AB", "population": 1418118.0 }, "geometry": { "type": "Point", "coordinates": [ -113.48906633936015, 53.547132364194965 ] } },
{ "type": "Feature", "properties": { "name": "Memphis, TN-MS-AR", "population": 1335804.0 }, "geometry": { "type": "Point", "coordinates": [ -89.869127533776947, 35.023872542279562 ] } },
{ "type": "Feature", "properties": { "name": "Richmond, VA", "population": 1316145.0 }, "geometry": { "type": "Point", "coordinates": [ -77.446721999669364, 37.412666763730272 ] } },
{ "type": "Feature", "properties": { "name": "Louisville, KY-IN", "population": 1282588.0 }, "geometry": { "type": "Point", "coordinates": [ -85.682231027694556, 38.303077317194187 ] } },
{ "type": "Feature", "properties": { "name": "New Orleans-Metairie, LA", "population": 1264357.0 }, "geometry": { "type": "Point", "coordinates": [ -89.957274087916829, 29.925261483813841 ] } },
{ "type": "Feature", "properties": { "name": "Salt Lake City, UT", "population": 1254675.0 }, "geometry": { "type": "Point", "coordinates": [ -113.010505699110084, 40.470583229752364 ] } },
{ "type": "Feature", "properties": { "name": "Hartford-East Hartford-Middletown, CT", "population": 1215703.0 }, "geometry": { "type": "Point", "coordinates": [ -72.577338804403055, 41.734624802928401 ] } },
{ "type": "Feature", "properties": { "name": "Buffalo-Cheektowaga, NY", "population": 1163462.0 }, "geometry": { "type": "Point", "coordinates": [ -78.736656014967352, 42.910918900265727 ] } },
{ "type": "Feature", "properties": { "name": "Birmingham-Hoover, AL", "population": 1114368.0 }, "geometry": { "type": "Point", "coordinates": [ -86.72822058322987, 33.403678077765584 ] } },
{ "type": "Feature", "properties": { "name": "Grand Rapids-Kentwood, MI", "population": 1087068.0 }, "geometry": { "type": "Point", "coordinates": [ -85.438568488288254, 43.072042073461937 ] } },
{ "type": "Feature", "properties": { "name": "Rochester, NY", "population": 1086859.0 }, "geometry": { "type": "Point", "coordinates": [ -77.507899498763351, 42.965924453584407 ] } },
{ "type": "Feature", "properties": { "name": "Tucson, AZ", "population": 1042393.0 }, "geometry": { "type": "Point", "coordinates": [ -111.789916847135586, 32.097440599551049 ] } },
{ "type": "Feature", "properties": { "name": "Tulsa, OK", "population": 1017724.0 }, "geometry": { "type": "Point", "coordinates": [ -96.16621431287173, 36.250391941413611 ] } },
{ "type": "Feature", "properties": { "name": "Urban Honolulu, HI", "population": 1010100.0 }, "geometry": { "type": "Point", "coordinates": [ -158.105334179553381, 21.5007853613407 ] } },
{ "type": "Feature", "properties": { "name": "Fresno, CA", "population": 1008280.0 }, "geometry": { "type": "Point", "coordinates": [ -119.64930660930672, 36.758194701672942 ] } },
{ "type": "Feature", "properties": { "name": "Worcester, MA-CT", "population": 975551.0 }, "geometry": { "type": "Point", "coordinates": [ -71.927394632704832, 42.222809055790499 ] } },
{ "type": "Feature", "properties": { "name": "Omaha-Council Bluffs, NE-IA", "population": 966688.0 }, "geometry": { "type": "Point", "coordinates": [ -95.999126217375846, 41.290077556884519 ] } },
{ "type": "Feature", "properties": { "name": "Bridgeport-Stamford-Norwalk, CT", "population": 958371.0 }, "geometry": { "type": "Point", "coordinates": [ -73.389254784279615, 41.271043004137134 ] } },
{ "type": "Feature", "properties": { "name": "Greenville-Anderson, SC", "population": 931405.0 }, "geometry": { "type": "Point", "coordinates": [ -82.413867619374159, 34.685131860498409 ] } },
{ "type": "Feature", "properties": { "name": "Albuquerque, NM", "population": 915968.0 }, "geometry": { "type": "Point", "coordinates": [ -106.471553185625567, 35.122301938768388 ] } },
{ "type": "Feature", "properties": { "name": "Bakersfield, CA", "population": 906883.0 }, "geometry": { "type": "Point", "coordinates": [ -118.73007310422966, 35.342649155169831 ] } },
{ "type": "Feature", "properties": { "name": "Albany-Schenectady-Troy, NY", "population": 901729.0 }, "geometry": { "type": "Point", "coordinates": [ -73.941996089397506, 42.788506490805773 ] } },
{ "type": "Feature", "properties": { "name": "Knoxville, TN", "population": 884359.0 }, "geometry": { "type": "Point", "coordinates": [ -84.194367532870558, 36.023747469392596 ] } },
{ "type": "Feature", "properties": { "name": "McAllen-Edinburg-Mission, TX", "population": 873167.0 }, "geometry": { "type": "Point", "coordinates": [ -98.181218175970457, 26.396891019688141 ] } },
{ "type": "Feature", "properties": { "name": "Baton Rouge, LA", "population": 869755.0 }, "geometry": { "type": "Point", "coordinates": [ -91.126972531894197, 30.517347072788329 ] } },
{ "type": "Feature", "properties": { "name": "El Paso, TX", "population": 867161.0 }, "geometry": { "type": "Point", "coordinates": [ -105.541024560597606, 31.513133242080968 ] } },
{ "type": "Feature", "properties": { "name": "New Haven-Milford, CT", "population": 866377.0 }, "geometry": { "type": "Point", "coordinates": [ -72.932119326722997, 41.410561043993262 ] } },
{ "type": "Feature", "properties": { "name": "Allentown-Bethlehem-Easton, PA-NJ", "population": 863166.0 }, "geometry": { "type": "Point", "coordinates": [ -75.403836417146138, 40.789365640814658 ] } },
{ "type": "Feature", "properties": { "name": "North Port-Sarasota-Bradenton, FL", "population": 844461.0 }, "geometry": { "type": "Point", "coordinates": [ -82.322301543581943, 27.34786245913735 ] } },
{ "type": "Feature", "properties": { "name": "Oxnard-Thousand Oaks-Ventura, CA", "population": 842009.0 }, "geometry": { "type": "Point", "coordinates": [ -119.083606507828961, 34.456067799277456 ] } },
{ "type": "Feature", "properties": { "name": "Quebec, QC", "population": 839311.0 }, "geometry": { "type": "Point", "coordinates": [ -71.20729129510984, 46.81429714149094 ] } },
{ "type": "Feature", "properties": { "name": "Winnipeg, MB", "population": 834678.0 }, "geometry": { "type": "Point", "coordinates": [ -97.134260946643096, 49.888973974981575 ] } },
{ "type": "Feature", "properties": { "name": "Columbia, SC", "population": 831913.0 }, "geometry": { "type": "Point", "coordinates": [ -81.042385614487841, 34.091768180880713 ] } },
{ "type": "Feature", "properties": { "name": "Dayton-Kettering, OH", "population": 812506.0 }, "geometry": { "type": "Point", "coordinates": [ -84.141933337766616, 39.829522036322437 ] } },
{ "type": "Feature", "properties": { "name": "Charleston-North Charleston, SC", "population": 803398.0 }, "geometry": { "type": "Point", "coordinates": [ -80.044300287851058, 33.042457528690178 ] } },
{ "type": "Feature", "properties": { "name": "Hamilton, ON", "population": 785184.0 }, "geometry": { "type": "Point", "coordinates": [ -79.869199783323324, 43.253075082537379 ] } },
{ "type": "Feature", "properties": { "name": "Stockton, CA", "population": 779445.0 }, "geometry": { "type": "Point", "coordinates": [ -121.271392966870664, 37.934750830785319 ] } },
{ "type": "Feature", "properties": { "name": "Greensboro-High Point, NC", "population": 775169.0 }, "geometry": { "type": "Point", "coordinates": [ -79.79160668232376, 36.025864007679331 ] } },
{ "type": "Feature", "properties": { "name": "Cape Coral-Fort Myers, FL", "population": 772902.0 }, "geometry": { "type": "Point", "coordinates": [ -81.83365939693185, 26.5778618892158 ] } },
{ "type": "Feature", "properties": { "name": "Boise City, ID", "population": 771602.0 }, "geometry": { "type": "Point", "coordinates": [ -116.143187066745369, 43.015975104179056 ] } },
{ "type": "Feature", "properties": { "name": "Colorado Springs, CO", "population": 755081.0 }, "geometry": { "type": "Point", "coordinates": [ -104.65776311657433, 38.842573411437904 ] } },
{ "type": "Feature", "properties": { "name": "Little Rock-North Little Rock-Conway, AR", "population": 749290.0 }, "geometry": { "type": "Point", "coordinates": [ -92.397194727749451, 34.757273693976693 ] } },
{ "type": "Feature", "properties": { "name": "Lakeland-Winter Haven, FL", "population": 736229.0 }, "geometry": { "type": "Point", "coordinates": [ -81.697577147240352, 27.948882615231998 ] } },
{ "type": "Feature", "properties": { "name": "Des Moines-West Des Moines, IA", "population": 711490.0 }, "geometry": { "type": "Point", "coordinates": [ -93.761837486694333, 41.575657683620307 ] } },
{ "type": "Feature", "properties": { "name": "Akron, OH", "population": 700578.0 }, "geometry": { "type": "Point", "coordinates": [ -81.349537350915881, 41.148724762220027 ] } },
{ "type": "Feature", "properties": { "name": "Poughkeepsie-Newburgh-Middletown, NY", "population": 697704.0 }, "geometry": { "type": "Point", "coordinates": [ -74.025679692414201, 41.582732901535884 ] } },
{ "type": "Feature", "properties": { "name": "Ogden-Clearfield, UT", "population": 696650.0 }, "geometry": { "type": "Point", "coordinates": [ -112.815924695866229, 41.432682847614835 ] } },
{ "type": "Feature", "properties": { "name": "Springfield, MA", "population": 689486.0 }, "geometry": { "type": "Point", "coordinates": [ -72.625620610327914, 42.364839615613278 ] } },
{ "type": "Feature", "properties": { "name": "Madison, WI", "population": 678995.0 }, "geometry": { "type": "Point", "coordinates": [ -89.592228647791757, 43.080166511937811 ] } },
{ "type": "Feature", "properties": { "name": "Winston-Salem, NC", "population": 678243.0 }, "geometry": { "type": "Point", "coordinates": [ -80.345824865652858, 36.076669509755142 ] } },
{ "type": "Feature", "properties": { "name": "Provo-Orem, UT", "population": 677964.0 }, "geometry": { "type": "Point", "coordinates": [ -112.352589989539268, 39.864522626362735 ] } },
{ "type": "Feature", "properties": { "name": "Deltona-Daytona Beach-Ormond Beach, FL", "population": 676035.0 }, "geometry": { "type": "Point", "coordinates": [ -81.219685881827218, 29.174035707816394 ] } },
{ "type": "Feature", "properties": { "name": "Syracuse, NY", "population": 658694.0 }, "geometry": { "type": "Point", "coordinates": [ -76.033551038808071, 43.154481272238129 ] } },
{ "type": "Feature", "properties": { "name": "Durham-Chapel Hill, NC", "population": 648066.0 }, "geometry": { "type": "Point", "coordinates": [ -78.997099077658547, 36.062791887048725 ] } },
{ "type": "Feature", "properties": { "name": "Wichita, KS", "population": 646794.0 }, "geometry": { "type": "Point", "coordinates": [ -97.245390017579325, 37.638692268462677 ] } },
{ "type": "Feature", "properties": { "name": "Toledo, OH", "population": 644547.0 }, "geometry": { "type": "Point", "coordinates": [ -83.679386643962943, 41.504599671420237 ] } },
{ "type": "Feature", "properties": { "name": "Augusta-Richmond County, GA-SC", "population": 612898.0 }, "geometry": { "type": "Point", "coordinates": [ -81.982898046776739, 33.46097760596696 ] } },
{ "type": "Feature", "properties": { "name": "Palm Bay-Melbourne-Titusville, FL", "population": 610723.0 }, "geometry": { "type": "Point", "coordinates": [ -80.732278458816268, 28.293695088607318 ] } },
{ "type": "Feature", "properties": { "name": "Harrisburg-Carlisle, PA", "population": 593318.0 }, "geometry": { "type": "Point", "coordinates": [ -77.101184340536122, 40.326669219359523 ] } },
{ "type": "Feature", "properties": { "name": "Jackson, MS", "population": 591397.0 }, "geometry": { "type": "Point", "coordinates": [ -90.202464933964038, 32.430147048905809 ] } },
{ "type": "Feature", "properties": { "name": "Spokane-Spokane Valley, WA", "population": 585485.0 }, "geometry": { "type": "Point", "coordinates": [ -117.670889780104602, 48.081142167830485 ] } },
{ "type": "Feature", "properties": { "name": "Kitchener - Cambridge - Waterloo, ON", "population": 575847.0 }, "geometry": { "type": "Point", "coordinates": [ -80.498962248284101, 43.453123906241402 ] } },
{ "type": "Feature", "properties": { "name": "Scranton--Wilkes-Barre, PA", "population": 567287.0 }, "geometry": { "type": "Point", "coordinates": [ -75.895737305520726, 41.323213617296013 ] } },
{ "type": "Feature", "properties": { "name": "Chattanooga, TN-GA", "population": 564466.0 }, "geometry": { "type": "Point", "coordinates": [ -85.359160620558654, 35.051948532343495 ] } },
{ "type": "Feature", "properties": { "name": "Lancaster, PA", "population": 553202.0 }, "geometry": { "type": "Point", "coordinates": [ -76.2477135327902, 40.042421832639171 ] } },
{ "type": "Feature", "properties": { "name": "Portland-South Portland, ME", "population": 552916.0 }, "geometry": { "type": "Point", "coordinates": [ -70.468860303532594, 43.696103057166795 ] } },
{ "type": "Feature", "properties": { "name": "Modesto, CA", "population": 552063.0 }, "geometry": { "type": "Point", "coordinates": [ -120.997696809178649, 37.559128773880751 ] } },
{ "type": "Feature", "properties": { "name": "Fayetteville-Springdale-Rogers, AR", "population": 550596.0 }, "geometry": { "type": "Point", "coordinates": [ -94.075526001485954, 36.108355144168293 ] } },
{ "type": "Feature", "properties": { "name": "London, ON", "population": 543551.0 }, "geometry": { "type": "Point", "coordinates": [ -81.246054156900911, 42.984293207197659 ] } },
{ "type": "Feature", "properties": { "name": "Youngstown-Warren-Boardman, OH-PA", "population": 540328.0 }, "geometry": { "type": "Point", "coordinates": [ -80.567634148941991, 41.237825393091747 ] } },
{ "type": "Feature", "properties": { "name": "Lansing-East Lansing, MI", "population": 538985.0 }, "geometry": { "type": "Point", "coordinates": [ -84.496273992119399, 42.771136307548971 ] } },
{ "type": "Feature", "properties": { "name": "Fayetteville, NC", "population": 522537.0 }, "geometry": { "type": "Point", "coordinates": [ -78.939848142986989, 35.158181878113815 ] } },
{ "type": "Feature", "properties": { "name": "Lexington-Fayette, KY", "population": 515954.0 }, "geometry": { "type": "Point", "coordinates": [ -84.433062080683584, 38.090515613804556 ] } },
{ "type": "Feature", "properties": { "name": "Pensacola-Ferry Pass-Brent, FL", "population": 510290.0 }, "geometry": { "type": "Point", "coordinates": [ -87.1561719334223, 30.688026744080503 ] } },
{ "type": "Feature", "properties": { "name": "Myrtle Beach-Conway-North Myrtle Beach, SC-NC", "population": 496299.0 }, "geometry": { "type": "Point", "coordinates": [ -78.664059848511911, 33.986949153145297 ] } },
{ "type": "Feature", "properties": { "name": "Port St. Lucie, FL", "population": 494081.0 }, "geometry": { "type": "Point", "coordinates": [ -80.450727259690609, 27.219834420557174 ] } },
{ "type": "Feature", "properties": { "name": "Huntsville, AL", "population": 493980.0 }, "geometry": { "type": "Point", "coordinates": [ -86.734668321539132, 34.783200221853932 ] } },
{ "type": "Feature", "properties": { "name": "Reno, NV", "population": 490769.0 }, "geometry": { "type": "Point", "coordinates": [ -119.659176731852568, 40.618953188064623 ] } },
{ "type": "Feature", "properties": { "name": "Santa Rosa-Petaluma, CA", "population": 488436.0 }, "geometry": { "type": "Point", "coordinates": [ -122.88806363602329, 38.528917641975553 ] } },
{ "type": "Feature", "properties": { "name": "Lafayette, LA", "population": 479865.0 }, "geometry": { "type": "Point", "coordinates": [ -92.060261529636591, 30.02469233664781 ] } },
{ "type": "Feature", "properties": { "name": "Killeen-Temple, TX", "population": 477577.0 }, "geometry": { "type": "Point", "coordinates": [ -97.787590516180003, 31.207835320287458 ] } },
{ "type": "Feature", "properties": { "name": "Springfield, MO", "population": 477056.0 }, "geometry": { "type": "Point", "coordinates": [ -93.177076801820817, 37.361685029557783 ] } },
{ "type": "Feature", "properties": { "name": "Visalia, CA", "population": 473446.0 }, "geometry": { "type": "Point", "coordinates": [ -118.80046179812021, 36.220174905162779 ] } },
{ "type": "Feature", "properties": { "name": "Asheville, NC", "population": 469484.0 }, "geometry": { "type": "Point", "coordinates": [ -82.682670774816671, 35.600655682211034 ] } },
{ "type": "Feature", "properties": { "name": "Halifax, NS", "population": 465703.0 }, "geometry": { "type": "Point", "coordinates": [ -63.572301310453462, 44.646568406181977 ] } },
{ "type": "Feature", "properties": { "name": "York-Hanover, PA", "population": 457051.0 }, "geometry": { "type": "Point", "coordinates": [ -76.7265198754842, 39.919961768746887 ] } },
{ "type": "Feature", "properties": { "name": "Vallejo, CA", "population": 450995.0 }, "geometry": { "type": "Point", "coordinates": [ -121.932876722031168, 38.269963984338666 ] } },
{ "type": "Feature", "properties": { "name": "Santa Maria-Santa Barbara, CA", "population": 445213.0 }, "geometry": { "type": "Point", "coordinates": [ -120.016875714063772, 34.672932864127567 ] } },
{ "type": "Feature", "properties": { "name": "Salinas, CA", "population": 437609.0 }, "geometry": { "type": "Point", "coordinates": [ -121.238806945878267, 36.217071682498741 ] } },
{ "type": "Feature", "properties": { "name": "St. Catharines - Niagara, ON", "population": 433604.0 }, "geometry": { "type": "Point", "coordinates": [ -79.089194851280439, 43.094171352423245 ] } },
{ "type": "Feature", "properties": { "name": "Salem, OR", "population": 433415.0 }, "geometry": { "type": "Point", "coordinates": [ -122.903105470692807, 44.903359301600581 ] } },
{ "type": "Feature", "properties": { "name": "Mobile, AL", "population": 429312.0 }, "geometry": { "type": "Point", "coordinates": [ -88.206753129436009, 31.074727140123485 ] } },
{ "type": "Feature", "properties": { "name": "Reading, PA", "population": 428483.0 }, "geometry": { "type": "Point", "coordinates": [ -75.925991738337075, 40.41631288423612 ] } },
{ "type": "Feature", "properties": { "name": "Manchester-Nashua, NH", "population": 422733.0 }, "geometry": { "type": "Point", "coordinates": [ -71.716085797265109, 42.915333285704349 ] } },
{ "type": "Feature", "properties": { "name": "Windsor, ON", "population": 422630.0 }, "geometry": { "type": "Point", "coordinates": [ -83.032160328066723, 42.308572558100764 ] } },
{ "type": "Feature", "properties": { "name": "Corpus Christi, TX", "population": 422187.0 }, "geometry": { "type": "Point", "coordinates": [ -97.570990259760705, 27.852632988718145 ] } },
{ "type": "Feature", "properties": { "name": "Salisbury, MD-DE", "population": 421982.0 }, "geometry": { "type": "Point", "coordinates": [ -75.469140572149755, 38.416428213946432 ] } },
{ "type": "Feature", "properties": { "name": "Brownsville-Harlingen, TX", "population": 421854.0 }, "geometry": { "type": "Point", "coordinates": [ -97.518218509533, 26.133263323861481 ] } },
{ "type": "Feature", "properties": { "name": "Fort Wayne, IN", "population": 419715.0 }, "geometry": { "type": "Point", "coordinates": [ -85.215139735194839, 41.107313207678686 ] } },
{ "type": "Feature", "properties": { "name": "Gulfport-Biloxi, MS", "population": 416839.0 }, "geometry": { "type": "Point", "coordinates": [ -89.037861591183827, 30.556561923848346 ] } },
{ "type": "Feature", "properties": { "name": "Oshawa, ON", "population": 415311.0 }, "geometry": { "type": "Point", "coordinates": [ -78.865509555926863, 43.897710439286747 ] } },
{ "type": "Feature", "properties": { "name": "Savannah, GA", "population": 406575.0 }, "geometry": { "type": "Point", "coordinates": [ -81.301854805063428, 32.130565986901054 ] } },
{ "type": "Feature", "properties": { "name": "Flint, MI", "population": 405280.0 }, "geometry": { "type": "Point", "coordinates": [ -83.706706501258267, 43.021716777507635 ] } },
{ "type": "Feature", "properties": { "name": "Peoria, IL", "population": 401702.0 }, "geometry": { "type": "Point", "coordinates": [ -89.694783907107308, 40.707328356415324 ] } },
{ "type": "Feature", "properties": { "name": "Canton-Massillon, OH", "population": 400960.0 }, "geometry": { "type": "Point", "coordinates": [ -81.253465214849285, 40.718652628354661 ] } },
{ "type": "Feature", "properties": { "name": "Anchorage, AK", "population": 399335.0 }, "geometry": { "type": "Point", "coordinates": [ -149.543787272503209, 62.242551268527372 ] } },
{ "type": "Feature", "properties": { "name": "Victoria, BC", "population": 397237.0 }, "geometry": { "type": "Point", "coordinates": [ -123.551686571047711, 48.465458222389877 ] } },
{ "type": "Feature", "properties": { "name": "Beaumont-Port Arthur, TX", "population": 396279.0 }, "geometry": { "type": "Point", "coordinates": [ -94.208149997206149, 30.102096524044718 ] } },
{ "type": "Feature", "properties": { "name": "Shreveport-Bossier City, LA", "population": 391957.0 }, "geometry": { "type": "Point", "coordinates": [ -93.745062468930243, 32.43872327014185 ] } },
{ "type": "Feature", "properties": { "name": "Tallahassee, FL", "population": 386064.0 }, "geometry": { "type": "Point", "coordinates": [ -84.286173635609529, 30.405018509277713 ] } },
{ "type": "Feature", "properties": { "name": "Montgomery, AL", "population": 384740.0 }, "geometry": { "type": "Point", "coordinates": [ -86.403234931570339, 32.360620993331096 ] } },
{ "type": "Feature", "properties": { "name": "Trenton-Princeton, NJ", "population": 383732.0 }, "geometry": { "type": "Point", "coordinates": [ -74.701773189670263, 40.283433316940382 ] } },
{ "type": "Feature", "properties": { "name": "Davenport-Moline-Rock Island, IA-IL", "population": 382983.0 }, "geometry": { "type": "Point", "coordinates": [ -90.465910109839641, 41.396870683630517 ] } },
{ "type": "Feature", "properties": { "name": "Eugene-Springfield, OR", "population": 382218.0 }, "geometry": { "type": "Point", "coordinates": [ -122.847991648592583, 43.938647434433008 ] } },
{ "type": "Feature", "properties": { "name": "Naples-Marco Island, FL", "population": 380221.0 }, "geometry": { "type": "Point", "coordinates": [ -81.347538893344279, 26.110756832632607 ] } },
{ "type": "Feature", "properties": { "name": "Ocala, FL", "population": 378225.0 }, "geometry": { "type": "Point", "coordinates": [ -82.056656859874664, 29.210202277250215 ] } },
{ "type": "Feature", "properties": { "name": "Ann Arbor, MI", "population": 370231.0 }, "geometry": { "type": "Point", "coordinates": [ -83.838768572302214, 42.253219286267523 ] } },
{ "type": "Feature", "properties": { "name": "Hickory-Lenoir-Morganton, NC", "population": 366031.0 }, "geometry": { "type": "Point", "coordinates": [ -81.454278512571761, 35.812898815030252 ] } },
{ "type": "Feature", "properties": { "name": "Fort Collins, CO", "population": 359363.0 }, "geometry": { "type": "Point", "coordinates": [ -105.461156675759966, 40.666384714607027 ] } },
{ "type": "Feature", "properties": { "name": "Huntington-Ashland, WV-KY-OH", "population": 359005.0 }, "geometry": { "type": "Point", "coordinates": [ -82.5411342488092, 38.406631233847392 ] } },
{ "type": "Feature", "properties": { "name": "Gainesville, FL", "population": 341067.0 }, "geometry": { "type": "Point", "coordinates": [ -82.600809416097135, 29.51622462686808 ] } },
{ "type": "Feature", "properties": { "name": "Lincoln, NE", "population": 339707.0 }, "geometry": { "type": "Point", "coordinates": [ -96.87082068612365, 40.819915969619615 ] } },
{ "type": "Feature", "properties": { "name": "Rockford, IL", "population": 338050.0 }, "geometry": { "type": "Point", "coordinates": [ -89.042054025902218, 42.331626580836101 ] } },
{ "type": "Feature", "properties": { "name": "Greeley, CO", "population": 331466.0 }, "geometry": { "type": "Point", "coordinates": [ -104.392471138160687, 40.554844210531819 ] } },
{ "type": "Feature", "properties": { "name": "Spartanburg, SC", "population": 330119.0 }, "geometry": { "type": "Point", "coordinates": [ -81.990772452227162, 34.930930149726372 ] } },
{ "type": "Feature", "properties": { "name": "Boulder, CO", "population": 328658.0 }, "geometry": { "type": "Point", "coordinates": [ -105.357728417154405, 40.092495933524376 ] } },
{ "type": "Feature", "properties": { "name": "Green Bay, WI", "population": 328011.0 }, "geometry": { "type": "Point", "coordinates": [ -88.076742199393237, 44.772981600216148 ] } },
{ "type": "Feature", "properties": { "name": "Columbus, GA-AL", "population": 326159.0 }, "geometry": { "type": "Point", "coordinates": [ -84.843913845679111, 32.418226965196197 ] } },
{ "type": "Feature", "properties": { "name": "South Bend-Mishawaka, IN-MI", "population": 323992.0 }, "geometry": { "type": "Point", "coordinates": [ -86.134114985568203, 41.773634281188606 ] } },
{ "type": "Feature", "properties": { "name": "Clarksville, TN-KY", "population": 322949.0 }, "geometry": { "type": "Point", "coordinates": [ -87.62308222637084, 36.692913801575493 ] } },
{ "type": "Feature", "properties": { "name": "Lubbock, TX", "population": 322285.0 }, "geometry": { "type": "Point", "coordinates": [ -101.644700456157494, 33.468551268366177 ] } },
{ "type": "Feature", "properties": { "name": "Saskatoon, SK", "population": 317480.0 }, "geometry": { "type": "Point", "coordinates": [ -106.660191535991274, 52.130672537278784 ] } },
{ "type": "Feature", "properties": { "name": "Roanoke, VA", "population": 314708.0 }, "geometry": { "type": "Point", "coordinates": [ -79.946558108784018, 37.286091791020787 ] } },
{ "type": "Feature", "properties": { "name": "Evansville, IN-KY", "population": 313961.0 }, "geometry": { "type": "Point", "coordinates": [ -87.579089033824005, 37.971127301807186 ] } },
{ "type": "Feature", "properties": { "name": "Kingsport-Bristol, TN-VA", "population": 308386.0 }, "geometry": { "type": "Point", "coordinates": [ -82.442615180700258, 36.607770830394109 ] } },
{ "type": "Feature", "properties": { "name": "Kennewick-Richland, WA", "population": 304252.0 }, "geometry": { "type": "Point", "coordinates": [ -119.254430856928593, 46.363502808791296 ] } },
{ "type": "Feature", "properties": { "name": "Hagerstown-Martinsburg, MD-WV", "population": 295165.0 }, "geometry": { "type": "Point", "coordinates": [ -77.981366872540576, 39.549868841486052 ] } },
{ "type": "Feature", "properties": { "name": "Olympia-Lacey-Tumwater, WA", "population": 294272.0 }, "geometry": { "type": "Point", "coordinates": [ -122.83319161115277, 46.925771208064816 ] } },
{ "type": "Feature", "properties": { "name": "Duluth, MN-WI", "population": 291491.0 }, "geometry": { "type": "Point", "coordinates": [ -92.212070347328506, 47.396187098506715 ] } },
{ "type": "Feature", "properties": { "name": "Utica-Rome, NY", "population": 291348.0 }, "geometry": { "type": "Point", "coordinates": [ -75.18140724265767, 43.337149995434324 ] } },
{ "type": "Feature", "properties": { "name": "Wilmington, NC", "population": 289726.0 }, "geometry": { "type": "Point", "coordinates": [ -77.901044628842243, 34.466792759362576 ] } },
{ "type": "Feature", "properties": { "name": "Crestview-Fort Walton Beach-Destin, FL", "population": 288639.0 }, "geometry": { "type": "Point", "coordinates": [ -86.365656089370148, 30.665745415225746 ] } },
{ "type": "Feature", "properties": { "name": "Longview, TX", "population": 287359.0 }, "geometry": { "type": "Point", "coordinates": [ -94.675186890063245, 32.431059951623268 ] } },
{ "type": "Feature", "properties": { "name": "Merced, CA", "population": 282290.0 }, "geometry": { "type": "Point", "coordinates": [ -120.717671150295686, 37.191871151739541 ] } },
{ "type": "Feature", "properties": { "name": "San Luis Obispo-Paso Robles, CA", "population": 281712.0 }, "geometry": { "type": "Point", "coordinates": [ -120.404355179759108, 35.387109652820875 ] } },
{ "type": "Feature", "properties": { "name": "Waco, TX", "population": 278103.0 }, "geometry": { "type": "Point", "coordinates": [ -97.08979720111391, 31.426403561212108 ] } },
{ "type": "Feature", "properties": { "name": "Sioux Falls, SD", "population": 277944.0 }, "geometry": { "type": "Point", "coordinates": [ -96.990037455551999, 43.499691345597817 ] } },
{ "type": "Feature", "properties": { "name": "Cedar Rapids, IA", "population": 275693.0 }, "geometry": { "type": "Point", "coordinates": [ -91.6313384052538, 42.091475630090521 ] } },
{ "type": "Feature", "properties": { "name": "Bremerton-Silverdale-Port Orchard, WA", "population": 275411.0 }, "geometry": { "type": "Point", "coordinates": [ -122.671611211353934, 47.613027863965549 ] } },
{ "type": "Feature", "properties": { "name": "Atlantic City-Hammonton, NJ", "population": 274339.0 }, "geometry": { "type": "Point", "coordinates": [ -74.66099337167428, 39.477737563436925 ] } },
{ "type": "Feature", "properties": { "name": "Tuscaloosa, AL", "population": 272931.0 }, "geometry": { "type": "Point", "coordinates": [ -87.764463467614249, 33.109807405752676 ] } },
{ "type": "Feature", "properties": { "name": "Erie, PA", "population": 270495.0 }, "geometry": { "type": "Point", "coordinates": [ -80.032705113758936, 41.992525652593486 ] } },
{ "type": "Feature", "properties": { "name": "College Station-Bryan, TX", "population": 269418.0 }, "geometry": { "type": "Point", "coordinates": [ -96.48897637802645, 30.756548433913892 ] } },
{ "type": "Feature", "properties": { "name": "Amarillo, TX", "population": 269278.0 }, "geometry": { "type": "Point", "coordinates": [ -101.909497320656939, 35.248869770691748 ] } },
{ "type": "Feature", "properties": { "name": "Santa Cruz-Watsonville, CA", "population": 268571.0 }, "geometry": { "type": "Point", "coordinates": [ -122.00184601909551, 37.056186415378825 ] } },
{ "type": "Feature", "properties": { "name": "Norwich-New London, CT", "population": 268448.0 }, "geometry": { "type": "Point", "coordinates": [ -72.10143959705573, 41.486666228208918 ] } },
{ "type": "Feature", "properties": { "name": "Laredo, TX", "population": 267282.0 }, "geometry": { "type": "Point", "coordinates": [ -99.331519682847556, 27.761115060920648 ] } },
{ "type": "Feature", "properties": { "name": "Lynchburg, VA", "population": 262124.0 }, "geometry": { "type": "Point", "coordinates": [ -79.219780185890116, 37.365005387062624 ] } },
{ "type": "Feature", "properties": { "name": "Kalamazoo-Portage, MI", "population": 261426.0 }, "geometry": { "type": "Point", "coordinates": [ -85.531185767154781, 42.245460589449721 ] } },
{ "type": "Feature", "properties": { "name": "Charleston, WV", "population": 257927.0 }, "geometry": { "type": "Point", "coordinates": [ -81.619057066194657, 38.356095483610495 ] } },
{ "type": "Feature", "properties": { "name": "Yakima, WA", "population": 256143.0 }, "geometry": { "type": "Point", "coordinates": [ -120.73848543903766, 46.457063138702843 ] } },
{ "type": "Feature", "properties": { "name": "Fargo, ND-MN", "population": 251635.0 }, "geometry": { "type": "Point", "coordinates": [ -96.965471624943902, 46.91781700635088 ] } },
{ "type": "Feature", "properties": { "name": "Regina, SK", "population": 249217.0 }, "geometry": { "type": "Point", "coordinates": [ -104.614320170514304, 50.448472068659733 ] } },
{ "type": "Feature", "properties": { "name": "Binghamton, NY", "population": 246709.0 }, "geometry": { "type": "Point", "coordinates": [ -76.025137646746245, 42.164508823862825 ] } },
{ "type": "Feature", "properties": { "name": "Fort Smith, AR-OK", "population": 245475.0 }, "geometry": { "type": "Point", "coordinates": [ -94.309063086102185, 35.457461359157321 ] } },
{ "type": "Feature", "properties": { "name": "Appleton, WI", "population": 242972.0 }, "geometry": { "type": "Point", "coordinates": [ -88.371158359815055, 44.28902544383417 ] } },
{ "type": "Feature", "properties": { "name": "Prescott Valley-Prescott, AZ", "population": 237830.0 }, "geometry": { "type": "Point", "coordinates": [ -112.553750559381498, 34.599840604389186 ] } },
{ "type": "Feature", "properties": { "name": "Tyler, TX", "population": 234667.0 }, "geometry": { "type": "Point", "coordinates": [ -95.269180543712537, 32.375033545608389 ] } },
{ "type": "Feature", "properties": { "name": "Daphne-Fairhope-Foley, AL", "population": 233420.0 }, "geometry": { "type": "Point", "coordinates": [ -87.72257982206051, 30.727599571696654 ] } },
{ "type": "Feature", "properties": { "name": "Macon-Bibb County, GA", "population": 233334.0 }, "geometry": { "type": "Point", "coordinates": [ -83.714904581353977, 32.857688084485581 ] } },
{ "type": "Feature", "properties": { "name": "Topeka, KS", "population": 232995.0 }, "geometry": { "type": "Point", "coordinates": [ -95.803134740328716, 39.043813736201152 ] } },
{ "type": "Feature", "properties": { "name": "Barnstable Town, MA", "population": 229436.0 }, "geometry": { "type": "Point", "coordinates": [ -70.290361245329237, 41.72436319071474 ] } },
{ "type": "Feature", "properties": { "name": "Sherbrooke, QC", "population": 227398.0 }, "geometry": { "type": "Point", "coordinates": [ -71.889316896904148, 45.401552717546117 ] } },
{ "type": "Feature", "properties": { "name": "Bellingham, WA", "population": 226523.0 }, "geometry": { "type": "Point", "coordinates": [ -121.719889559869159, 48.825910069087151 ] } },
{ "type": "Feature", "properties": { "name": "Rochester, MN", "population": 225911.0 }, "geometry": { "type": "Point", "coordinates": [ -92.338108769976472, 43.956024747346227 ] } },
{ "type": "Feature", "properties": { "name": "Burlington-South Burlington, VT", "population": 225745.0 }, "geometry": { "type": "Point", "coordinates": [ -73.031470422351362, 44.686840490633664 ] } },
{ "type": "Feature", "properties": { "name": "Lafayette-West Lafayette, IN", "population": 224515.0 }, "geometry": { "type": "Point", "coordinates": [ -87.023428066196672, 40.477237438874027 ] } },
{ "type": "Feature", "properties": { "name": "Champaign-Urbana, IL", "population": 223223.0 }, "geometry": { "type": "Point", "coordinates": [ -88.318792361693454, 40.100491403870777 ] } },
{ "type": "Feature", "properties": { "name": "Medford, OR", "population": 222604.0 }, "geometry": { "type": "Point", "coordinates": [ -122.728498559928752, 42.432192209814453 ] } },
{ "type": "Feature", "properties": { "name": "Kelowna, BC", "population": 222162.0 }, "geometry": { "type": "Point", "coordinates": [ -119.495121371422726, 49.88736316483957 ] } },
{ "type": "Feature", "properties": { "name": "Charlottesville, VA", "population": 221648.0 }, "geometry": { "type": "Point", "coordinates": [ -78.592969595645371, 37.95010105813332 ] } },
{ "type": "Feature", "properties": { "name": "Lebanon, NH-VT Micro Area", "population": 221463.0 }, "geometry": { "type": "Point", "coordinates": [ -72.161094898316307, 43.783553670331337 ] } },
{ "type": "Feature", "properties": { "name": "Las Cruces, NM", "population": 219870.0 }, "geometry": { "type": "Point", "coordinates": [ -106.832781932780989, 32.352647408145586 ] } },
{ "type": "Feature", "properties": { "name": "Hilton Head Island-Bluffton, SC", "population": 218515.0 }, "geometry": { "type": "Point", "coordinates": [ -80.876950631840387, 32.410800266082525 ] } },
{ "type": "Feature", "properties": { "name": "Lake Charles, LA", "population": 216217.0 }, "geometry": { "type": "Point", "coordinates": [ -93.259633772863737, 30.017362110783793 ] } },
{ "type": "Feature", "properties": { "name": "Athens-Clarke County, GA", "population": 216194.0 }, "geometry": { "type": "Point", "coordinates": [ -83.21380355948267, 33.949022233212041 ] } },
{ "type": "Feature", "properties": { "name": "Lake Havasu City-Kingman, AZ", "population": 214229.0 }, "geometry": { "type": "Point", "coordinates": [ -113.757899811014838, 35.704081789951516 ] } },
{ "type": "Feature", "properties": { "name": "Chico, CA", "population": 213605.0 }, "geometry": { "type": "Point", "coordinates": [ -121.600677874216899, 39.666940199311469 ] } },
{ "type": "Feature", "properties": { "name": "Barrie, ON", "population": 212856.0 }, "geometry": { "type": "Point", "coordinates": [ -79.689125891404785, 44.388849755380306 ] } },
{ "type": "Feature", "properties": { "name": "St. John's, NL", "population": 212579.0 }, "geometry": { "type": "Point", "coordinates": [ -52.706491654377395, 47.566154474186646 ] } },
{ "type": "Feature", "properties": { "name": "Columbia, MO", "population": 211078.0 }, "geometry": { "type": "Point", "coordinates": [ -92.579312137694799, 38.983826390554782 ] } },
{ "type": "Feature", "properties": { "name": "Springfield, IL", "population": 208406.0 }, "geometry": { "type": "Point", "coordinates": [ -89.69691542520151, 39.829598356099069 ] } },
{ "type": "Feature", "properties": { "name": "Johnson City, TN", "population": 207442.0 }, "geometry": { "type": "Point", "coordinates": [ -82.334471180164499, 36.253772346569711 ] } },
{ "type": "Feature", "properties": { "name": "Elkhart-Goshen, IN", "population": 206841.0 }, "geometry": { "type": "Point", "coordinates": [ -85.858745315145015, 41.597387149886927 ] } },
{ "type": "Feature", "properties": { "name": "Houma-Thibodaux, LA", "population": 206082.0 }, "geometry": { "type": "Point", "coordinates": [ -90.665590423307989, 29.483712962363072 ] } },
{ "type": "Feature", "properties": { "name": "Monroe, LA", "population": 206072.0 }, "geometry": { "type": "Point", "coordinates": [ -92.118335463431137, 32.73280491646269 ] } },
{ "type": "Feature", "properties": { "name": "Gainesville, GA", "population": 204953.0 }, "geometry": { "type": "Point", "coordinates": [ -83.819668872677056, 34.316901655825568 ] } },
{ "type": "Feature", "properties": { "name": "Yuma, AZ", "population": 204374.0 }, "geometry": { "type": "Point", "coordinates": [ -113.90564989219159, 32.769506593521072 ] } },
{ "type": "Feature", "properties": { "name": "Jacksonville, NC", "population": 203686.0 }, "geometry": { "type": "Point", "coordinates": [ -77.432081530741627, 34.732127977953169 ] } },
{ "type": "Feature", "properties": { "name": "Hilo, HI Micro Area", "population": 202163.0 }, "geometry": { "type": "Point", "coordinates": [ -155.518468133337649, 19.598549773224001 ] } },
{ "type": "Feature", "properties": { "name": "Florence, SC", "population": 200040.0 }, "geometry": { "type": "Point", "coordinates": [ -79.808422843564259, 34.152004098235018 ] } },
{ "type": "Feature", "properties": { "name": "St. Cloud, MN", "population": 199922.0 }, "geometry": { "type": "Point", "coordinates": [ -94.472043116447409, 45.585859036432403 ] } },
{ "type": "Feature", "properties": { "name": "Bend, OR", "population": 199352.0 }, "geometry": { "type": "Point", "coordinates": [ -121.228079341673109, 43.915030927063853 ] } },
{ "type": "Feature", "properties": { "name": "Racine, WI", "population": 197068.0 }, "geometry": { "type": "Point", "coordinates": [ -88.061259209391338, 42.747456575097011 ] } },
{ "type": "Feature", "properties": { "name": "Abbotsford - Mission, BC", "population": 195726.0 }, "geometry": { "type": "Point", "coordinates": [ -122.32950985822778, 49.052054324760945 ] } },
{ "type": "Feature", "properties": { "name": "Warner Robins, GA", "population": 192171.0 }, "geometry": { "type": "Point", "coordinates": [ -83.712004803591128, 32.490293283424222 ] } },
{ "type": "Feature", "properties": { "name": "Punta Gorda, FL", "population": 189900.0 }, "geometry": { "type": "Point", "coordinates": [ -81.912271882253123, 26.905487449497052 ] } },
{ "type": "Feature", "properties": { "name": "Saginaw, MI", "population": 189821.0 }, "geometry": { "type": "Point", "coordinates": [ -84.053167733561594, 43.335043982122023 ] } },
{ "type": "Feature", "properties": { "name": "Torrington, CT Micro Area", "population": 185765.0 }, "geometry": { "type": "Point", "coordinates": [ -73.245337239755571, 41.79245628967535 ] } },
{ "type": "Feature", "properties": { "name": "Terre Haute, IN", "population": 185357.0 }, "geometry": { "type": "Point", "coordinates": [ -87.311866448642874, 39.481049414738955 ] } },
{ "type": "Feature", "properties": { "name": "Billings, MT", "population": 185147.0 }, "geometry": { "type": "Point", "coordinates": [ -108.821880498991476, 45.639973602152878 ] } },
{ "type": "Feature", "properties": { "name": "St. George, UT", "population": 183297.0 }, "geometry": { "type": "Point", "coordinates": [ -113.504783670395938, 37.280398098013954 ] } },
{ "type": "Feature", "properties": { "name": "Dover, DE", "population": 182400.0 }, "geometry": { "type": "Point", "coordinates": [ -75.568619629198636, 39.085983812182256 ] } },
{ "type": "Feature", "properties": { "name": "Kingston, NY", "population": 182153.0 }, "geometry": { "type": "Point", "coordinates": [ -74.258557017421964, 41.888141534227856 ] } },
{ "type": "Feature", "properties": { "name": "Redding, CA", "population": 181852.0 }, "geometry": { "type": "Point", "coordinates": [ -122.040514370255153, 40.763737156928507 ] } },
{ "type": "Feature", "properties": { "name": "Joplin, MO", "population": 181807.0 }, "geometry": { "type": "Point", "coordinates": [ -94.339943313688465, 37.056554262103319 ] } },
{ "type": "Feature", "properties": { "name": "Panama City, FL", "population": 181055.0 }, "geometry": { "type": "Point", "coordinates": [ -85.620264949848362, 30.265221490007296 ] } },
{ "type": "Feature", "properties": { "name": "Yuba City, CA", "population": 180806.0 }, "geometry": { "type": "Point", "coordinates": [ -121.517895969754264, 39.155309820046185 ] } },
{ "type": "Feature", "properties": { "name": "Bowling Green, KY", "population": 180624.0 }, "geometry": { "type": "Point", "coordinates": [ -86.407013633874811, 37.038629017927889 ] } },
{ "type": "Feature", "properties": { "name": "Jackson, TN", "population": 180446.0 }, "geometry": { "type": "Point", "coordinates": [ -88.881053125310501, 35.746291568485553 ] } },
{ "type": "Feature", "properties": { "name": "El Centro, CA", "population": 179578.0 }, "geometry": { "type": "Point", "coordinates": [ -115.365342993341528, 33.039508125674509 ] } },
{ "type": "Feature", "properties": { "name": "Abilene, TX", "population": 176656.0 }, "geometry": { "type": "Point", "coordinates": [ -99.717707792050504, 32.449694847479151 ] } },
{ "type": "Feature", "properties": { "name": "Muskegon, MI", "population": 175947.0 }, "geometry": { "type": "Point", "coordinates": [ -86.152046814033497, 43.291245229345634 ] } },
{ "type": "Feature", "properties": { "name": "Iowa City, IA", "population": 175894.0 }, "geometry": { "type": "Point", "coordinates": [ -91.649972413731291, 41.51134564158793 ] } },
{ "type": "Feature", "properties": { "name": "Auburn-Opelika, AL", "population": 175126.0 }, "geometry": { "type": "Point", "coordinates": [ -85.355478865470062, 32.601135727617944 ] } },
{ "type": "Feature", "properties": { "name": "Midland, TX", "population": 174621.0 }, "geometry": { "type": "Point", "coordinates": [ -101.991039606568776, 32.089708902488539 ] } },
{ "type": "Feature", "properties": { "name": "Coeur d'Alene, ID", "population": 173396.0 }, "geometry": { "type": "Point", "coordinates": [ -116.701824144656896, 47.674377131959574 ] } },
{ "type": "Feature", "properties": { "name": "Kingston, ON", "population": 172546.0 }, "geometry": { "type": "Point", "coordinates": [ -76.486216975511979, 44.230717150595105 ] } },
{ "type": "Feature", "properties": { "name": "Hattiesburg, MS", "population": 172176.0 }, "geometry": { "type": "Point", "coordinates": [ -89.295021672536265, 31.278625662733099 ] } },
{ "type": "Feature", "properties": { "name": "Eau Claire, WI", "population": 171951.0 }, "geometry": { "type": "Point", "coordinates": [ -91.282185517226537, 44.938828873412092 ] } },
{ "type": "Feature", "properties": { "name": "Burlington, NC", "population": 171779.0 }, "geometry": { "type": "Point", "coordinates": [ -79.39944336473279, 36.043721382631588 ] } },
{ "type": "Feature", "properties": { "name": "Bloomington, IL", "population": 171284.0 }, "geometry": { "type": "Point", "coordinates": [ -88.847336477999903, 40.490881357194525 ] } },
{ "type": "Feature", "properties": { "name": "Oshkosh-Neenah, WI", "population": 171197.0 }, "geometry": { "type": "Point", "coordinates": [ -88.644647761699503, 44.068889824579571 ] } },
{ "type": "Feature", "properties": { "name": "Greenville, NC", "population": 171196.0 }, "geometry": { "type": "Point", "coordinates": [ -77.374491806240457, 35.593293361209049 ] } },
{ "type": "Feature", "properties": { "name": "Greater Sudbury, ON", "population": 170605.0 }, "geometry": { "type": "Point", "coordinates": [ -80.991545123202712, 46.49254799537632 ] } },
{ "type": "Feature", "properties": { "name": "Waterloo-Cedar Falls, IA", "population": 168404.0 }, "geometry": { "type": "Point", "coordinates": [ -92.471181112093277, 42.536234479540816 ] } },
{ "type": "Feature", "properties": { "name": "Pueblo, CO", "population": 168135.0 }, "geometry": { "type": "Point", "coordinates": [ -104.512707623659551, 38.173514040591236 ] } },
{ "type": "Feature", "properties": { "name": "East Stroudsburg, PA", "population": 168128.0 }, "geometry": { "type": "Point", "coordinates": [ -75.339526443265669, 41.058058604109114 ] } },
{ "type": "Feature", "properties": { "name": "Blacksburg-Christiansburg, VA", "population": 166304.0 }, "geometry": { "type": "Point", "coordinates": [ -80.592352586680562, 37.186900446065557 ] } },
{ "type": "Feature", "properties": { "name": "Wausau-Weston, WI", "population": 166222.0 }, "geometry": { "type": "Point", "coordinates": [ -89.750100254691063, 45.059430233421089 ] } },
{ "type": "Feature", "properties": { "name": "Guelph, ON", "population": 165588.0 }, "geometry": { "type": "Point", "coordinates": [ -80.246945627030129, 43.544337799056557 ] } },
{ "type": "Feature", "properties": { "name": "Kahului-Wailuku-Lahaina, HI", "population": 164765.0 }, "geometry": { "type": "Point", "coordinates": [ -156.564868356863172, 20.859636760089124 ] } },
{ "type": "Feature", "properties": { "name": "Janesville-Beloit, WI", "population": 163817.0 }, "geometry": { "type": "Point", "coordinates": [ -89.071578667373245, 42.671229875463311 ] } },
{ "type": "Feature", "properties": { "name": "Tupelo, MS Micro Area", "population": 163378.0 }, "geometry": { "type": "Point", "coordinates": [ -88.648513635258027, 34.342275276669653 ] } },
{ "type": "Feature", "properties": { "name": "Odessa, TX", "population": 162300.0 }, "geometry": { "type": "Point", "coordinates": [ -102.542882658626311, 31.869195067626226 ] } },
{ "type": "Feature", "properties": { "name": "Saguenay, QC", "population": 161567.0 }, "geometry": { "type": "Point", "coordinates": [ -71.066109503125972, 48.428696615050299 ] } },
{ "type": "Feature", "properties": { "name": "Trois-Rivieres, QC", "population": 161489.0 }, "geometry": { "type": "Point", "coordinates": [ -72.543212736479319, 46.342746830416722 ] } }
]
}
