{
"type": "FeatureCollection",
"name": "metro_regions_centroids.geo",
"crs": { "type": "name", "properties": { "name": "urn:ogc:def:crs:EPSG::4269" } },
"features": [
{ "type": "Feature", "properties": { "name": "New York-Newark-Jersey City, NY-NJ-PA", "population": 19908595.0 }, "geometry": { "type": "Point", "coordinates": [ -73.992721852387263, 40.750001984086047 ] } },
{ "type": "Feature", "properties": { "name": "Los Angeles-Long Beach-Anaheim, CA", "population": 13111917.0 }, "geometry": { "type": "Point", "coordinates": [ -118.254111954938452, 34.053943082284846 ] } },
{ "type": "Feature", "properties": { "name": "Chicago-Naperville-Elgin, IL-IN-WI", "population": 9566955.0 }, "geometry": { "type": "Point", "coordinates": [ -87.660001157700719, 41.865927839724122 ] } },
{ "type": "Feature", "properties": { "name": "Dallas-Fort Worth-Arlington, TX", "population": 7673379.0 }, "geometry": { "type": "Point", "coordinates": [ -96.804883360061183, 32.775526605639918 ] } },
{ "type": "Feature", "properties": { "name": "Houston-The Woodlands-Sugar Land, TX", "population": 7142603.0 }, "geometry": { "type": "Point", "coordinates": [ -95.370370144932153, 29.760376938099622 ] } },
{ "type": "Feature", "properties": { "name": "Washington-Arlington-Alexandria, DC-VA-MD-WV", "population": 6346083.0 }, "geometry": { "type": "Point", "coordinates": [ -77.036230720521502, 38.895211688949054 ] } },
{ "type": "Feature", "properties": { "name": "Philadelphia-Camden-Wilmington, PA-NJ-DE-MD", "population": 6232894.0 }, "geometry": { "type": "Point", "coordinates": [ -75.156362551493217, 39.951506569871086 ] } },
{ "type": "Feature", "properties": { "name": "Toronto, ON", "population": 6202225.0 }, "geometry": { "type": "Point", "coordinates": [ -79.380485380596255, 43.644547574971469 ] } },
{ "type": "Feature", "properties": { "name": "Miami-Fort Lauderdale-Pompano Beach, FL", "population": 6123949.0 }, "geometry": { "type": "Point", "coordinates": [ -80.194113411024389, 25.770851120533255 ] } },
{ "type": "Feature", "properties": { "name": "Atlanta-Sandy Springs-Alpharetta, GA", "population": 6094752.0 }, "geometry": { "type": "Point", "coordinates": [ -84.401646724503991, 33.747013740438604 ] } },
{ "type": "Feature", "properties": { "name": "Boston-Cambridge-Newton, MA-NH", "population": 4912449.0 }, "geometry": { "type": "Point", "coordinates": [ -71.064179868991786, 42.352883148340439 ] } },
{ "type": "Feature", "properties": { "name": "Phoenix-Mesa-Chandler, AZ", "population": 4864209.0 }, "geometry": { "type": "Point", "coordinates": [ -112.074727661700209, 33.437429336971725 ] } },
{ "type": "Feature", "properties": { "name": "San Francisco-Oakland-Berkeley, CA", "population": 4692242.0 }, "geometry": { "type": "Point", "coordinates": [ -122.42034021864383, 37.779453690078697 ] } },
{ "type": "Feature", "properties": { "name": "Riverside-San Bernardino-Ontario, CA", "population": 4610050.0 }, "geometry": { "type": "Point", "coordinates": [ -117.352098976086893, 34.100792243138848 ] } },
{ "type": "Feature", "properties": { "name": "Detroit-Warren-Dearborn, MI", "population": 4375604.0 }, "geometry": { "type": "Point", "coordinates": [ -83.062023488585908, 42.350833517075436 ] } },
{ "type": "Feature", "properties": { "name": "Montreal, QC", "population": 4291732.0 }, "geometry": { "type": "Point", "coordinates": [ -73.567047703334481, 45.500258726165697 ] } },
{ "type": "Feature", "properties": { "name": "Seattle-Tacoma-Bellevue, WA", "population": 4001701.0 }, "geometry": { "type": "Point", "coordinates": [ -122.329577691882506, 47.597794001026735 ] } },
{ "type": "Feature", "properties": { "name": "Minneapolis-St. Paul-Bloomington, MN-WI", "population": 3678328.0 }, "geometry": { "type": "Point", "coordinates": [ -93.270510722630448, 44.975829102152517 ] } },
{ "type": "Feature", "properties": { "name": "San Diego-Chula Vista-Carlsbad, CA", "population": 3289701.0 }, "geometry": { "type": "Point", "coordinates": [ -117.170505604106864, 32.724200206106239 ] } },
{ "type": "Feature", "properties": { "name": "Tampa-St. Petersburg-Clearwater, FL", "population": 3194310.0 }, "geometry": { "type": "Point", "coordinates": [ -82.458076679726133, 27.951430350679065 ] } },
{ "type": "Feature", "properties": { "name": "Denver-Aurora-Lakewood, CO", "population": 2959386.0 }, "geometry": { "type": "Point", "coordinates": [ -105.000784369594882, 39.753629060115266 ] } },
{ "type": "Feature", "properties": { "name": "Baltimore-Columbia-Towson, MD", "population": 2840005.0 }, "geometry": { "type": "Point", "coordinates": [ -76.611528291509316, 39.290626177461384 ] } },
{ "type": "Feature", "properties": { "name": "St. Louis, MO-IL", "population": 2813523.0 }, "geometry": { "type": "Point", "coordinates": [ -90.196354484372435, 38.615163130832435 ] } },
{ "type": "Feature", "properties": { "name": "Orlando-Kissimmee-Sanford, FL", "population": 2679298.0 }, "geometry": { "type": "Point", "coordinates": [ -81.385261738294986, 28.558147019738357 ] } },
{ "type": "Feature", "properties": { "name": "Charlotte-Concord-Gastonia, NC-SC", "population": 2668688.0 }, "geometry": { "type": "Point", "coordinates": [ -80.839086181484106, 35.227009198163593 ] } },
{ "type": "Feature", "properties": { "name": "Vancouver, BC", "population": 2642825.0 }, "geometry": { "type": "Point", "coordinates": [ -123.119120074923487, 49.281881881091586 ] } },
{ "type": "Feature", "properties": { "name": "San Antonio-New Braunfels, TX", "population": 2570862.0 }, "geometry": { "type": "Point", "coordinates": [ -98.495041342711261, 29.42304462548293 ] } },
{ "type": "Feature", "properties": { "name": "Portland-Vancouver-Hillsboro, OR-WA", "population": 2505312.0 }, "geometry": { "type": "Point", "coordinates": [ -122.677054097372817, 45.52896158307464 ] } },
{ "type": "Feature", "properties": { "name": "Sacramento-Roseville-Folsom, CA", "population": 2394673.0 }, "geometry": { "type": "Point", "coordinates": [ -121.501209831777714, 38.577718523104991 ] } },
{ "type": "Feature", "properties": { "name": "Pittsburgh, PA", "population": 2365501.0 }, "geometry": { "type": "Point", "coordinates": [ -79.992193117027185, 40.433419418886544 ] } },
{ "type": "Feature", "properties": { "name": "Austin-Round Rock-Georgetown, TX", "population": 2296377.0 }, "geometry": { "type": "Point", "coordinates": [ -97.749317741383493, 30.269312816152464 ] } },
{ "type": "Feature", "properties": { "name": "Las Vegas-Henderson-Paradise, NV", "population": 2265926.0 }, "geometry": { "type": "Point", "coordinates": [ -115.176699687981824, 36.157748677200246 ] } },
{ "type": "Feature", "properties": { "name": "Cincinnati, OH-KY-IN", "population": 2253528.0 }, "geometry": { "type": "Point", "coordinates": [ -84.517189228602035, 39.100668597021972 ] } },
{ "type": "Feature", "properties": { "name": "Kansas City, MO-KS", "population": 2190750.0 }, "geometry": { "type": "Point", "coordinates": [ -94.444370205477014, 38.937148507302098 ] } },
{ "type": "Feature", "properties": { "name": "Columbus, OH", "population": 2137223.0 }, "geometry": { "type": "Point", "coordinates": [ -83.000903178447146, 39.957603750610353 ] } },
{ "type": "Feature", "properties": { "name": "Indianapolis-Carmel-Anderson, IN", "population": 2109957.0 }, "geometry": { "type": "Point", "coordinates": [ -86.151529576422234, 39.765442441871983 ] } },
{ "type": "Feature", "properties": { "name": "Cleveland-Elyria, OH", "population": 2079759.0 }, "geometry": { "type": "Point", "coordinates": [ -81.684304716896321, 41.498666572202637 ] } },
{ "type": "Feature", "properties": { "name": "Nashville-Davidson--Murfreesboro--Franklin, TN", "population": 1990873.0 }, "geometry": { "type": "Point", "coordinates": [ -86.799293228623284, 36.163532051164275 ] } },
{ "type": "Feature", "properties": { "name": "San Jose-Sunnyvale-Santa Clara, CA", "population": 1981584.0 }, "geometry": { "type": "Point", "coordinates": [ -121.897142921504724, 37.329129671007848 ] } },
{ "type": "Feature", "properties": { "name": "Virginia Beach-Norfolk-Newport News, VA-NC", "population": 1798025.0 }, "geometry": { "type": "Point", "coordinates": [ -76.292111876195108, 36.847899437587195 ] } },
{ "type": "Feature", "properties": { "name": "Providence-Warwick, RI-MA", "population": 1670949.0 }, "geometry": { "type": "Point", "coordinates": [ -71.412220265167235, 41.820693801262294 ] } },
{ "type": "Feature", "properties": { "name": "Jacksonville, FL", "population": 1613587.0 }, "geometry": { "type": "Point", "coordinates": [ -81.650953680085408, 30.327385990103295 ] } },
{ "type": "Feature", "properties": { "name": "Milwaukee-Waukesha, WI", "population": 1568940.0 }, "geometry": { "type": "Point", "coordinates": [ -87.927088540361822, 43.040233041046221 ] } },
{ "type": "Feature", "properties": { "name": "Ottawa - Gatineau, ON-QC", "population": 1488307.0 }, "geometry": { "type": "Point", "coordinates": [ -75.699126304825612, 45.421327327656691 ] } },
{ "type": "Feature", "properties": { "name": "Calgary, AB", "population": 1481806.0 }, "geometry": { "type": "Point", "coordinates": [ -114.056716180669667, 51.046310534792177 ] } },
{ "type": "Feature", "properties": { "name": "Oklahoma City, OK", "population": 1428923.0 }, "geometry": { "type": "Point", "coordinates": [ -97.518604850753121, 35.475353352567303 ] } },
{ "type": "Feature", "properties": { "name": "Raleigh-Cary, NC", "population": 1420825.0 }, "geometry": { "type": "Point", "coordinates": [ -78.639871369185144, 35.771405630697906 ] } },
{ "type": "Feature", "properties": { "name": "Edmonton, AB", "population": 1418118.0 }, "geometry": { "type": "Point", "coordinates": [ -113.48906633936015, 53.547132364194965 ] } },
{ "type": "Feature", "properties": { "name": "Memphis, TN-MS-AR", "population": 1335804.0 }, "geometry": { "type": "Point", "coordinates": [ -90.047879575724863, 35.143982197432358 ] } },
{ "type": "Feature", "properties": { "name": "Richmond, VA", "population": 1316145.0 }, "geometry": { "type": "Point", "coordinates": [ -77.434977949337807, 37.535546281061038 ] } },
{ "type": "Feature", "properties": { "name": "Louisville, KY-IN", "population": 1282588.0 }, "geometry": { "type": "Point", "coordinates": [ -85.759689779916144, 38.248314291042853 ] } },
{ "type": "Feature", "properties": { "name": "New Orleans-Metairie, LA", "population": 1264357.0 }, "geometry": { "type": "Point", "coordinates": [ -90.086951920105832, 29.977465127732764 ] } },
{ "type": "Feature", "properties": { "name": "Salt Lake City, UT", "population": 1254675.0 }, "geometry": { "type": "Point", "coordinates": [ -111.908957280968053, 40.761560663459989 ] } },
{ "type": "Feature", "properties": { "name": "Hartford-East Hartford-Middletown, CT", "population": 1215703.0 }, "geometry": { "type": "Point", "coordinates": [ -72.697002674865018, 41.766386360054547 ] } },
{ "type": "Feature", "properties": { "name": "Buffalo-Cheektowaga, NY", "population": 1163462.0 }, "geometry": { "type": "Point", "coordinates": [ -78.876538140864028, 42.886854005280647 ] } },
{ "type": "Feature", "properties": { "name": "Birmingham-Hoover, AL", "population": 1114368.0 }, "geometry": { "type": "Point", "coordinates": [ -86.819666665336314, 33.507192354102038 ] } },
{ "type": "Feature", "properties": { "name": "Grand Rapids-Kentwood, MI", "population": 1087068.0 }, "geometry": { "type": "Point", "coordinates": [ -85.695220411687572, 42.961651077642372 ] } },
{ "type": "Feature", "properties": { "name": "Rochester, NY", "population": 1086859.0 }, "geometry": { "type": "Point", "coordinates": [ -77.616036402317292, 43.154660037718919 ] } },
{ "type": "Feature", "properties": { "name": "Tucson, AZ", "population": 1042393.0 }, "geometry": { "type": "Point", "coordinates": [ -110.975120255550678, 32.223009308546231 ] } },
{ "type": "Feature", "properties": { "name": "Tulsa, OK", "population": 1017724.0 }, "geometry": { "type": "Point", "coordinates": [ -95.99887671311707, 36.145279173004973 ] } },
{ "type": "Feature", "properties": { "name": "Urban Honolulu, HI", "population": 1010100.0 }, "geometry": { "type": "Point", "coordinates": [ -157.85876397223214, 21.306831013642164 ] } },
{ "type": "Feature", "properties": { "name": "Fresno, CA", "population": 1008280.0 }, "geometry": { "type": "Point", "coordinates": [ -119.788724795195705, 36.73739927584591 ] } },
{ "type": "Feature", "properties": { "name": "Worcester, MA-CT", "population": 975551.0 }, "geometry": { "type": "Point", "coordinates": [ -71.786477506701885, 42.260932132541171 ] } },
{ "type": "Feature", "properties": { "name": "Omaha-Council Bluffs, NE-IA", "population": 966688.0 }, "geometry": { "type": "Point", "coordinates": [ -95.938593667500783, 41.257837279336137 ] } },
{ "type": "Feature", "properties": { "name": "Bridgeport-Stamford-Norwalk, CT", "population": 958371.0 }, "geometry": { "type": "Point", "coordinates": [ -73.40941012540371, 41.117734706590348 ] } },
{ "type": "Feature", "properties": { "name": "Greenville-Anderson, SC", "population": 931405.0 }, "geometry": { "type": "Point", "coordinates": [ -82.410631690120653, 34.846307626133736 ] } },
{ "type": "Feature", "properties": { "name": "Albuquerque, NM", "population": 915968.0 }, "geometry": { "type": "Point", "coordinates": [ -106.647247609979871, 35.083335884288125 ] } },
{ "type": "Feature", "properties": { "name": "Bakersfield, CA", "population": 906883.0 }, "geometry": { "type": "Point", "coordinates": [ -119.028116491246706, 35.372860745205408 ] } },
{ "type": "Feature", "properties": { "name": "Albany-Schenectady-Troy, NY", "population": 901729.0 }, "geometry": { "type": "Point", "coordinates": [ -73.755409689305608, 42.656684401226535 ] } },
{ "type": "Feature", "properties": { "name": "Knoxville, TN", "population": 884359.0 }, "geometry": { "type": "Point", "coordinates": [ -83.921335976792449, 35.952350978101869 ] } },
{ "type": "Feature", "properties": { "name": "McAllen-Edinburg-Mission, TX", "population": 873167.0 }, "geometry": { "type": "Point", "coordinates": [ -98.230465753617452, 26.206354894975352 ] } },
{ "type": "Feature", "properties": { "name": "Baton Rouge, LA", "population": 869755.0 }, "geometry": { "type": "Point", "coordinates": [ -91.186559326255306, 30.452090643961888 ] } },
{ "type": "Feature", "properties": { "name": "El Paso, TX", "population": 867161.0 }, "geometry": { "type": "Point", "coordinates": [ -106.487382415225156, 31.760496853290007 ] } },
{ "type": "Feature", "properties": { "name": "New Haven-Milford, CT", "population": 866377.0 }, "geometry": { "type": "Point", "coordinates": [ -72.926203837885424, 41.30763371945929 ] } },
{ "type": "Feature", "properties": { "name": "Allentown-Bethlehem-Easton, PA-NJ", "population": 863166.0 }, "geometry": { "type": "Point", "coordinates": [ -75.20701705510136, 40.691185960300295 ] } },
{ "type": "Feature", "properties": { "name": "North Port-Sarasota-Bradenton, FL", "population": 844461.0 }, "geometry": { "type": "Point", "coordinates": [ -82.577526418262153, 27.499834220211508 ] } },
{ "type": "Feature", "properties": { "name": "Oxnard-Thousand Oaks-Ventura, CA", "population": 842009.0 }, "geometry": { "type": "Point", "coordinates": [ -119.182917398508366, 34.196875077685803 ] } },
{ "type": "Feature", "properties": { "name": "Quebec, QC", "population": 839311.0 }, "geometry": { "type": "Point", "coordinates": [ -71.20729129510984, 46.81429714149094 ] } },
{ "type": "Feature", "properties": { "name": "Winnipeg, MB", "population": 834678.0 }, "geometry": { "type": "Point", "coordinates": [ -97.134260946643096, 49.888973974981575 ] } },
{ "type": "Feature", "properties": { "name": "Columbia, SC", "population": 831913.0 }, "geometry": { "type": "Point", "coordinates": [ -81.037796961478662, 33.993571216242529 ] } },
{ "type": "Feature", "properties": { "name": "Dayton-Kettering, OH", "population": 812506.0 }, "geometry": { "type": "Point", "coordinates": [ -84.191493329369436, 39.757719052716283 ] } },
{ "type": "Feature", "properties": { "name": "Charleston-North Charleston, SC", "population": 803398.0 }, "geometry": { "type": "Point", "coordinates": [ -79.936515026284241, 32.786085533043803 ] } },
{ "type": "Feature", "properties": { "name": "Hamilton, ON", "population": 785184.0 }, "geometry": { "type": "Point", "coordinates": [ -79.869199783323324, 43.253075082537379 ] } },
{ "type": "Feature", "properties": { "name": "Stockton, CA", "population": 779445.0 }, "geometry": { "type": "Point", "coordinates": [ -121.292079759948294, 37.959084471545815 ] } },
{ "type": "Feature", "properties": { "name": "Greensboro-High Point, NC", "population": 775169.0 }, "geometry": { "type": "Point", "coordinates": [ -79.795296410164539, 36.070646109341276 ] } },
{ "type": "Feature", "properties": { "name": "Cape Coral-Fort Myers, FL", "population": 772902.0 }, "geometry": { "type": "Point", "coordinates": [ -81.869758808618712, 26.637241887493872 ] } },
{ "type": "Feature", "properties": { "name": "Boise City, ID", "population": 771602.0 }, "geometry": { "type": "Point", "coordinates": [ -116.190632112211631, 43.62084893988866 ] } },
{ "type": "Feature", "properties": { "name": "Colorado Springs, CO", "population": 755081.0 }, "geometry": { "type": "Point", "coordinates": [ -104.829319572601761, 38.829791395209959 ] } },
{ "type": "Feature", "properties": { "name": "Little Rock-North Little Rock-Conway, AR", "population": 749290.0 }, "geometry": { "type": "Point", "coordinates": [ -92.292864848584387, 34.742714546186406 ] } },
{ "type": "Feature", "properties": { "name": "Lakeland-Winter Haven, FL", "population": 736229.0 }, "geometry": { "type": "Point", "coordinates": [ -81.951252555470418, 28.038667107324624 ] } },
{ "type": "Feature", "properties": { "name": "Des Moines-West Des Moines, IA", "population": 711490.0 }, "geometry": { "type": "Point", "coordinates": [ -93.614626441356933, 41.590991475274414 ] } },
{ "type": "Feature", "properties": { "name": "Akron, OH", "population": 700578.0 }, "geometry": { "type": "Point", "coordinates": [ -81.484198496031027, 41.137088345948996 ] } },
{ "type": "Feature", "properties": { "name": "Poughkeepsie-Newburgh-Middletown, NY", "population": 697704.0 }, "geometry": { "type": "Point", "coordinates": [ -74.022915704228112, 41.476910840319377 ] } },
{ "type": "Feature", "properties": { "name": "Ogden-Clearfield, UT", "population": 696650.0 }, "geometry": { "type": "Point", "coordinates": [ -111.979668339924729, 41.220872289314315 ] } },
{ "type": "Feature", "properties": { "name": "Springfield, MA", "population": 689486.0 }, "geometry": { "type": "Point", "coordinates": [ -72.611601693575238, 42.205138885565823 ] } },
{ "type": "Feature", "properties": { "name": "Madison, WI", "population": 678995.0 }, "geometry": { "type": "Point", "coordinates": [ -89.387277867512665, 43.072860914991224 ] } },
{ "type": "Feature", "properties": { "name": "Winston-Salem, NC", "population": 678243.0 }, "geometry": { "type": "Point", "coordinates": [ -80.235139372624346, 36.097711607125085 ] } },
{ "type": "Feature", "properties": { "name": "Provo-Orem, UT", "population": 677964.0 }, "geometry": { "type": "Point", "coordinates": [ -111.660406004540008, 40.225445047104792 ] } },
{ "type": "Feature", "properties": { "name": "Deltona-Daytona Beach-Ormond Beach, FL", "population": 676035.0 }, "geometry": { "type": "Point", "coordinates": [ -81.065984867067812, 29.214990074384477 ] } },
{ "type": "Feature", "properties": { "name": "Syracuse, NY", "population": 658694.0 }, "geometry": { "type": "Point", "coordinates": [ -76.141613578284861, 43.048289661344221 ] } },
{ "type": "Feature", "properties": { "name": "Durham-Chapel Hill, NC", "population": 648066.0 }, "geometry": { "type": "Point", "coordinates": [ -78.903330605582383, 35.996619556385269 ] } },
{ "type": "Feature", "properties": { "name": "Wichita, KS", "population": 646794.0 }, "geometry": { "type": "Point", "coordinates": [ -97.34073265442845, 37.694111920157134 ] } },
{ "type": "Feature", "properties": { "name": "Toledo, OH", "population": 644547.0 }, "geometry": { "type": "Point", "coordinates": [ -83.545962382561399, 41.656499651037613 ] } },
{ "type": "Feature", "properties": { "name": "Augusta-Richmond County, GA-SC", "population": 612898.0 }, "geometry": { "type": "Point", "coordinates": [ -81.971346904009138, 33.472744668723372 ] } },
{ "type": "Feature", "properties": { "name": "Palm Bay-Melbourne-Titusville, FL", "population": 610723.0 }, "geometry": { "type": "Point", "coordinates": [ -80.614978377642046, 28.076595506853348 ] } },
{ "type": "Feature", "properties": { "name": "Harrisburg-Carlisle, PA", "population": 593318.0 }, "geometry": { "type": "Point", "coordinates": [ -76.88468584195823, 40.267040165238114 ] } },
{ "type": "Feature", "properties": { "name": "Jackson, MS", "population": 591397.0 }, "geometry": { "type": "Point", "coordinates": [ -90.184074604709878, 32.287285212573181 ] } },
{ "type": "Feature", "properties": { "name": "Spokane-Spokane Valley, WA", "population": 585485.0 }, "geometry": { "type": "Point", "coordinates": [ -117.415404750130079, 47.656470923093821 ] } },
{ "type": "Feature", "properties": { "name": "Kitchener - Cambridge - Waterloo, ON", "population": 575847.0 }, "geometry": { "type": "Point", "coordinates": [ -80.498962248284101, 43.453123906241402 ] } },
{ "type": "Feature", "properties": { "name": "Scranton--Wilkes-Barre, PA", "population": 567287.0 }, "geometry": { "type": "Point", "coordinates": [ -75.662070323052305, 41.407518148299751 ] } },
{ "type": "Feature", "properties": { "name": "Chattanooga, TN-GA", "population": 564466.0 }, "geometry": { "type": "Point", "coordinates": [ -85.27212273967659, 35.11841836703001 ] } },
{ "type": "Feature", "properties": { "name": "Lancaster, PA", "population": 553202.0 }, "geometry": { "type": "Point", "coordinates": [ -76.31220622473387, 40.036497108963154 ] } },
{ "type": "Feature", "properties": { "name": "Portland-South Portland, ME", "population": 552916.0 }, "geometry": { "type": "Point", "coordinates": [ -70.266685411359276, 43.652889162810872 ] } },
{ "type": "Feature", "properties": { "name": "Modesto, CA", "population": 552063.0 }, "geometry": { "type": "Point", "coordinates": [ -120.995129942653151, 37.636229617989386 ] } },
{ "type": "Feature", "properties": { "name": "Fayetteville-Springdale-Rogers, AR", "population": 550596.0 }, "geometry": { "type": "Point", "coordinates": [ -94.190664432801782, 36.109888040915614 ] } },
{ "type": "Feature", "properties": { "name": "London, ON", "population": 543551.0 }, "geometry": { "type": "Point", "coordinates": [ -81.246054156900911, 42.984293207197659 ] } },
{ "type": "Feature", "properties": { "name": "Youngstown-Warren-Boardman, OH-PA", "population": 540328.0 }, "geometry": { "type": "Point", "coordinates": [ -80.654469354284217, 41.104290225544993 ] } },
{ "type": "Feature", "properties": { "name": "Lansing-East Lansing, MI", "population": 538985.0 }, "geometry": { "type": "Point", "coordinates": [ -84.566587835426517, 42.720996669911266 ] } },
{ "type": "Feature", "properties": { "name": "Fayetteville, NC", "population": 522537.0 }, "geometry": { "type": "Point", "coordinates": [ -78.939848142986989, 35.158181878113815 ] } },
{ "type": "Feature", "properties": { "name": "Lexington-Fayette, KY", "population": 515954.0 }, "geometry": { "type": "Point", "coordinates": [ -84.497094880063287, 38.042874563583496 ] } },
{ "type": "Feature", "properties": { "name": "Pensacola-Ferry Pass-Brent, FL", "population": 510290.0 }, "geometry": { "type": "Point", "coordinates": [ -87.222111812460071, 30.423215704232227 ] } },
{ "type": "Feature", "properties": { "name": "Myrtle Beach-Conway-North Myrtle Beach, SC-NC", "population": 496299.0 }, "geometry": { "type": "Point", "coordinates": [ -78.891608902268104, 33.700124525611209 ] } },
{ "type": "Feature", "properties": { "name": "Port St. Lucie, FL", "population": 494081.0 }, "geometry": { "type": "Point", "coordinates": [ -80.347611906806719, 27.29342838240056 ] } },
{ "type": "Feature", "properties": { "name": "Huntsville, AL", "population": 493980.0 }, "geometry": { "type": "Point", "coordinates": [ -86.59193071523022, 34.716107731865058 ] } },
{ "type": "Feature", "properties": { "name": "Reno, NV", "population": 490769.0 }, "geometry": { "type": "Point", "coordinates": [ -119.81626149504504, 39.525543029761963 ] } },
{ "type": "Feature", "properties": { "name": "Santa Rosa-Petaluma, CA", "population": 488436.0 }, "geometry": { "type": "Point", "coordinates": [ -122.717290035939016, 38.439113009954404 ] } },
{ "type": "Feature", "properties": { "name": "Lafayette, LA", "population": 479865.0 }, "geometry": { "type": "Point", "coordinates": [ -92.014893027131421, 30.238213878819199 ] } },
{ "type": "Feature", "properties": { "name": "Killeen-Temple, TX", "population": 477577.0 }, "geometry": { "type": "Point", "coordinates": [ -97.342965359821633, 31.092098137697128 ] } },
{ "type": "Feature", "properties": { "name": "Springfield, MO", "population": 477056.0 }, "geometry": { "type": "Point", "coordinates": [ -93.31321121327538, 37.193561712141936 ] } },
{ "type": "Feature", "properties": { "name": "Visalia, CA", "population": 473446.0 }, "geometry": { "type": "Point", "coordinates": [ -119.296041138430311, 36.32716694681303 ] } },
{ "type": "Feature", "properties": { "name": "Asheville, NC", "population": 469484.0 }, "geometry": { "type": "Point", "coordinates": [ -82.569432861211737, 35.58369264825506 ] } },
{ "type": "Feature", "properties": { "name": "Halifax, NS", "population": 465703.0 }, "geometry": { "type": "Point", "coordinates": [ -63.572301310453462, 44.646568406181977 ] } },
{ "type": "Feature", "properties": { "name": "York-Hanover, PA", "population": 457051.0 }, "geometry": { "type": "Point", "coordinates": [ -76.730838485958273, 39.965946380232978 ] } },
{ "type": "Feature", "properties": { "name": "Vallejo, CA", "population": 450995.0 }, "geometry": { "type": "Point", "coordinates": [ -122.040036066669259, 38.248241231755614 ] } },
{ "type": "Feature", "properties": { "name": "Santa Maria-Santa Barbara, CA", "population": 445213.0 }, "geometry": { "type": "Point", "coordinates": [ -119.708347401040683, 34.430465056270755 ] } },
{ "type": "Feature", "properties": { "name": "Salinas, CA", "population": 437609.0 }, "geometry": { "type": "Point", "coordinates": [ -121.896398686373658, 36.599204130462198 ] } },
{ "type": "Feature", "properties": { "name": "St. Catharines - Niagara, ON", "population": 433604.0 }, "geometry": { "type": "Point", "coordinates": [ -79.089194851280439, 43.094171352423245 ] } },
{ "type": "Feature", "properties": { "name": "Salem, OR", "population": 433415.0 }, "geometry": { "type": "Point", "coordinates": [ -123.030728586063972, 44.938239074887349 ] } },
{ "type": "Feature", "properties": { "name": "Mobile, AL", "population": 429312.0 }, "geometry": { "type": "Point", "coordinates": [ -88.058818158560641, 30.702941216911196 ] } },
{ "type": "Feature", "properties": { "name": "Reading, PA", "population": 428483.0 }, "geometry": { "type": "Point", "coordinates": [ -75.929576337974709, 40.334726115139588 ] } },
{ "type": "Feature", "properties": { "name": "Manchester-Nashua, NH", "population": 422733.0 }, "geometry": { "type": "Point", "coordinates": [ -71.453507871930526, 42.993695567627242 ] } },
{ "type": "Feature", "properties": { "name": "Windsor, ON", "population": 422630.0 }, "geometry": { "type": "Point", "coordinates": [ -83.032160328066723, 42.308572558100764 ] } },
{ "type": "Feature", "properties": { "name": "Corpus Christi, TX", "population": 422187.0 }, "geometry": { "type": "Point", "coordinates": [ -97.418877343190331, 27.765139096903646 ] } },
{ "type": "Feature", "properties": { "name": "Salisbury, MD-DE", "population": 421982.0 }, "geometry": { "type": "Point", "coordinates": [ -75.604089754872732, 38.36427622808251 ] } },
{ "type": "Feature", "properties": { "name": "Brownsville-Harlingen, TX", "population": 421854.0 }, "geometry": { "type": "Point", "coordinates": [ -97.692941930205265, 26.188324660782481 ] } },
{ "type": "Feature", "properties": { "name": "Fort Wayne, IN", "population": 419715.0 }, "geometry": { "type": "Point", "coordinates": [ -85.139276768781542, 41.079049749770959 ] } },
{ "type": "Feature", "properties": { "name": "Gulfport-Biloxi, MS", "population": 416839.0 }, "geometry": { "type": "Point", "coordinates": [ -88.562572312900642, 30.360624016838315 ] } },
{ "type": "Feature", "properties": { "name": "Oshawa, ON", "population": 415311.0 }, "geometry": { "type": "Point", "coordinates": [ -78.865509555926863, 43.897710439286747 ] } },
{ "type": "Feature", "properties": { "name": "Savannah, GA", "population": 406575.0 }, "geometry": { "type": "Point", "coordinates": [ -81.092219155437832, 32.074221803168435 ] } },
{ "type": "Feature", "properties": { "name": "Flint, MI", "population": 405280.0 }, "geometry": { "type": "Point", "coordinates": [ -83.689971880422561, 43.014322307448666 ] } },
{ "type": "Feature", "properties": { "name": "Peoria, IL", "population": 401702.0 }, "geometry": { "type": "Point", "coordinates": [ -89.602454849782049, 40.68806457594733 ] } },
{ "type": "Feature", "properties": { "name": "Canton-Massillon, OH", "population": 400960.0 }, "geometry": { "type": "Point", "coordinates": [ -81.372005050022878, 40.798229575494751 ] } },
{ "type": "Feature", "properties": { "name": "Anchorage, AK", "population": 399335.0 }, "geometry": { "type": "Point", "coordinates": [ -149.890436111467579, 61.221633723135263 ] } },
{ "type": "Feature", "properties": { "name": "Victoria, BC", "population": 397237.0 }, "geometry": { "type": "Point", "coordinates": [ -123.361709718003937, 48.427716645011209 ] } },
{ "type": "Feature", "properties": { "name": "Beaumont-Port Arthur, TX", "population": 396279.0 }, "geometry": { "type": "Point", "coordinates": [ -94.106658892382683, 30.079673680503539 ] } },
{ "type": "Feature", "properties": { "name": "Shreveport-Bossier City, LA", "population": 391957.0 }, "geometry": { "type": "Point", "coordinates": [ -93.765334055397801, 32.51961899278556 ] } },
{ "type": "Feature", "properties": { "name": "Tallahassee, FL", "population": 386064.0 }, "geometry": { "type": "Point", "coordinates": [ -84.279964280574845, 30.43813549070904 ] } },
{ "type": "Feature", "properties": { "name": "Montgomery, AL", "population": 384740.0 }, "geometry": { "type": "Point", "coordinates": [ -86.321773362653403, 32.388680765311186 ] } },
{ "type": "Feature", "properties": { "name": "Trenton-Princeton, NJ", "population": 383732.0 }, "geometry": { "type": "Point", "coordinates": [ -74.763266858203465, 40.22070648314066 ] } },
{ "type": "Feature", "properties": { "name": "Davenport-Moline-Rock Island, IA-IL", "population": 382983.0 }, "geometry": { "type": "Point", "coordinates": [ -90.598241455147871, 41.52583463968007 ] } },
{ "type": "Feature", "properties": { "name": "Eugene-Springfield, OR", "population": 382218.0 }, "geometry": { "type": "Point", "coordinates": [ -123.092476844594614, 44.055286069261321 ] } },
{ "type": "Feature", "properties": { "name": "Naples-Marco Island, FL", "population": 380221.0 }, "geometry": { "type": "Point", "coordinates": [ -81.773752476711238, 26.138226037563452 ] } },
{ "type": "Feature", "properties": { "name": "Ocala, FL", "population": 378225.0 }, "geometry": { "type": "Point", "coordinates": [ -82.16001050973432, 29.191603092783879 ] } },
{ "type": "Feature", "properties": { "name": "Ann Arbor, MI", "population": 370231.0 }, "geometry": { "type": "Point", "coordinates": [ -83.838768572302214, 42.253219286267523 ] } },
{ "type": "Feature", "properties": { "name": "Hickory-Lenoir-Morganton, NC", "population": 366031.0 }, "geometry": { "type": "Point", "coordinates": [ -81.345910305739807, 35.731995352411985 ] } },
{ "type": "Feature", "properties": { "name": "Fort Collins, CO", "population": 359363.0 }, "geometry": { "type": "Point", "coordinates": [ -105.081344188571919, 40.587075940459712 ] } },
{ "type": "Feature", "properties": { "name": "Huntington-Ashland, WV-KY-OH", "population": 359005.0 }, "geometry": { "type": "Point", "coordinates": [ -82.447471329108424, 38.41513576631236 ] } },
{ "type": "Feature", "properties": { "name": "Gainesville, FL", "population": 341067.0 }, "geometry": { "type": "Point", "coordinates": [ -82.325230708830887, 29.662205959058081 ] } },
{ "type": "Feature", "properties": { "name": "Lincoln, NE", "population": 339707.0 }, "geometry": { "type": "Point", "coordinates": [ -96.708877028153751, 40.813862010557081 ] } },
{ "type": "Feature", "properties": { "name": "Rockford, IL", "population": 338050.0 }, "geometry": { "type": "Point", "coordinates": [ -89.115725074065125, 42.257123746047803 ] } },
{ "type": "Feature", "properties": { "name": "Greeley, CO", "population": 331466.0 }, "geometry": { "type": "Point", "coordinates": [ -104.689640302192345, 40.393544190595662 ] } },
{ "type": "Feature", "properties": { "name": "Spartanburg, SC", "population": 330119.0 }, "geometry": { "type": "Point", "coordinates": [ -81.937298146762899, 34.948855439520095 ] } },
{ "type": "Feature", "properties": { "name": "Boulder, CO", "population": 328658.0 }, "geometry": { "type": "Point", "coordinates": [ -105.276616515046072, 40.017169719609093 ] } },
{ "type": "Feature", "properties": { "name": "Green Bay, WI", "population": 328011.0 }, "geometry": { "type": "Point", "coordinates": [ -88.019187637831223, 44.517558076478089 ] } },
{ "type": "Feature", "properties": { "name": "Columbus, GA-AL", "population": 326159.0 }, "geometry": { "type": "Point", "coordinates": [ -84.988848242914798, 32.464064141603174 ] } },
{ "type": "Feature", "properties": { "name": "South Bend-Mishawaka, IN-MI", "population": 323992.0 }, "geometry": { "type": "Point", "coordinates": [ -86.257024906250749, 41.680891727797281 ] } },
{ "type": "Feature", "properties": { "name": "Clarksville, TN-KY", "population": 322949.0 }, "geometry": { "type": "Point", "coordinates": [ -87.344073344563341, 36.516033407991394 ] } },
{ "type": "Feature", "properties": { "name": "Lubbock, TX", "population": 322285.0 }, "geometry": { "type": "Point", "coordinates": [ -101.853030254079414, 33.583409513207599 ] } },
{ "type": "Feature", "properties": { "name": "Saskatoon, SK", "population": 317480.0 }, "geometry": { "type": "Point", "coordinates": [ -106.660191535991274, 52.130672537278784 ] } },
{ "type": "Feature", "properties": { "name": "Roanoke, VA", "population": 314708.0 }, "geometry": { "type": "Point", "coordinates": [ -79.942375877941473, 37.270501120311458 ] } },
{ "type": "Feature", "properties": { "name": "Evansville, IN-KY", "population": 313961.0 }, "geometry": { "type": "Point", "coordinates": [ -87.574879264585263, 37.966345667762823 ] } },
{ "type": "Feature", "properties": { "name": "Kingsport-Bristol, TN-VA", "population": 308386.0 }, "geometry": { "type": "Point", "coordinates": [ -82.567200155818526, 36.548325935745922 ] } },
{ "type": "Feature", "properties": { "name": "Kennewick-Richland, WA", "population": 304252.0 }, "geometry": { "type": "Point", "coordinates": [ -119.279155577101108, 46.279961406957248 ] } },
{ "type": "Feature", "properties": { "name": "Hagerstown-Martinsburg, MD-WV", "population": 295165.0 }, "geometry": { "type": "Point", "coordinates": [ -77.720485151492838, 39.64257020762998 ] } },
{ "type": "Feature", "properties": { "name": "Olympia-Lacey-Tumwater, WA", "population": 294272.0 }, "geometry": { "type": "Point", "coordinates": [ -122.894841716937776, 47.045079852727845 ] } },
{ "type": "Feature", "properties": { "name": "Duluth, MN-WI", "population": 291491.0 }, "geometry": { "type": "Point", "coordinates": [ -92.147459909852387, 46.765707443644061 ] } },
{ "type": "Feature", "properties": { "name": "Utica-Rome, NY", "population": 291348.0 }, "geometry": { "type": "Point", "coordinates": [ -75.232344306905404, 43.098441253952878 ] } },
{ "type": "Feature", "properties": { "name": "Wilmington, NC", "population": 289726.0 }, "geometry": { "type": "Point", "coordinates": [ -77.939918228417909, 34.226032436890556 ] } },
{ "type": "Feature", "properties": { "name": "Crestview-Fort Walton Beach-Destin, FL", "population": 288639.0 }, "geometry": { "type": "Point", "coordinates": [ -86.481690886441129, 30.51847053956697 ] } },
{ "type": "Feature", "properties": { "name": "Longview, TX", "population": 287359.0 }, "geometry": { "type": "Point", "coordinates": [ -94.744096282140404, 32.500555304764397 ] } },
{ "type": "Feature", "properties": { "name": "Merced, CA", "population": 282290.0 }, "geometry": { "type": "Point", "coordinates": [ -120.483096172479989, 37.293613885026652 ] } },
{ "type": "Feature", "properties": { "name": "San Luis Obispo-Paso Robles, CA", "population": 281712.0 }, "geometry": { "type": "Point", "coordinates": [ -120.669899190377507, 35.284211899304552 ] } },
{ "type": "Feature", "properties": { "name": "Waco, TX", "population": 278103.0 }, "geometry": { "type": "Point", "coordinates": [ -97.146487285220331, 31.54319561708347 ] } },
{ "type": "Feature", "properties": { "name": "Sioux Falls, SD", "population": 277944.0 }, "geometry": { "type": "Point", "coordinates": [ -96.737902198265303, 43.536730371932101 ] } },
{ "type": "Feature", "properties": { "name": "Cedar Rapids, IA", "population": 275693.0 }, "geometry": { "type": "Point", "coordinates": [ -91.696732508600761, 41.972253015825558 ] } },
{ "type": "Feature", "properties": { "name": "Bremerton-Silverdale-Port Orchard, WA", "population": 275411.0 }, "geometry": { "type": "Point", "coordinates": [ -122.626329821721029, 47.565951450696808 ] } },
{ "type": "Feature", "properties": { "name": "Atlantic City-Hammonton, NJ", "population": 274339.0 }, "geometry": { "type": "Point", "coordinates": [ -74.426686520179032, 39.363973230914638 ] } },
{ "type": "Feature", "properties": { "name": "Tuscaloosa, AL", "population": 272931.0 }, "geometry": { "type": "Point", "coordinates": [ -87.551994034304911, 33.220021473105206 ] } },
{ "type": "Feature", "properties": { "name": "Erie, PA", "population": 270495.0 }, "geometry": { "type": "Point", "coordinates": [ -80.082617685451609, 42.129545732832561 ] } },
{ "type": "Feature", "properties": { "name": "College Station-Bryan, TX", "population": 269418.0 }, "geometry": { "type": "Point", "coordinates": [ -96.342713343669431, 30.617715243914652 ] } },
{ "type": "Feature", "properties": { "name": "Amarillo, TX", "population": 269278.0 }, "geometry": { "type": "Point", "coordinates": [ -101.838145551458126, 35.200939342540423 ] } },
{ "type": "Feature", "properties": { "name": "Santa Cruz-Watsonville, CA", "population": 268571.0 }, "geometry": { "type": "Point", "coordinates": [ -122.028128304572249, 36.972028457321585 ] } },
{ "type": "Feature", "properties": { "name": "Norwich-New London, CT", "population": 268448.0 }, "geometry": { "type": "Point", "coordinates": [ -72.089148631567141, 41.529895808324376 ] } },
{ "type": "Feature", "properties": { "name": "Laredo, TX", "population": 267282.0 }, "geometry": { "type": "Point", "coordinates": [ -99.503107827739655, 27.514438972798033 ] } },
{ "type": "Feature", "properties": { "name": "Lynchburg, VA", "population": 262124.0 }, "geometry": { "type": "Point", "coordinates": [ -79.145509368700786, 37.411288010970395 ] } },
{ "type": "Feature", "properties": { "name": "Kalamazoo-Portage, MI", "population": 261426.0 }, "geometry": { "type": "Point", "coordinates": [ -85.589725081859015, 42.29016513204791 ] } },
{ "type": "Feature", "properties": { "name": "Charleston, WV", "population": 257927.0 }, "geometry": { "type": "Point", "coordinates": [ -81.63490611007181, 38.350488775193405 ] } },
{ "type": "Feature", "properties": { "name": "Yakima, WA", "population": 256143.0 }, "geometry": { "type": "Point", "coordinates": [ -120.507399374185724, 46.602679087643338 ] } },
{ "type": "Feature", "properties": { "name": "Fargo, ND-MN", "population": 251635.0 }, "geometry": { "type": "Point", "coordinates": [ -96.793719833095253, 46.876472366778913 ] } },
{ "type": "Feature", "properties": { "name": "Regina, SK", "population": 249217.0 }, "geometry": { "type": "Point", "coordinates": [ -104.614320170514304, 50.448472068659733 ] } },
{ "type": "Feature", "properties": { "name": "Binghamton, NY", "population": 246709.0 }, "geometry": { "type": "Point", "coordinates": [ -75.90550498295427, 42.101286639363423 ] } },
{ "type": "Feature", "properties": { "name": "Fort Smith, AR-OK", "population": 245475.0 }, "geometry": { "type": "Point", "coordinates": [ -94.360350042684757, 35.385072695093086 ] } },
{ "type": "Feature", "properties": { "name": "Appleton, WI", "population": 242972.0 }, "geometry": { "type": "Point", "coordinates": [ -88.411585610685592, 44.259883117755557 ] } },
{ "type": "Feature", "properties": { "name": "Prescott Valley-Prescott, AZ", "population": 237830.0 }, "geometry": { "type": "Point", "coordinates": [ -112.470660751427133, 34.540732588022749 ] } },
{ "type": "Feature", "properties": { "name": "Tyler, TX", "population": 234667.0 }, "geometry": { "type": "Point", "coordinates": [ -95.308970746619224, 32.347900399798142 ] } },
{ "type": "Feature", "properties": { "name": "Daphne-Fairhope-Foley, AL", "population": 233420.0 }, "geometry": { "type": "Point", "coordinates": [ -87.683165476155239, 30.405405230150567 ] } },
{ "type": "Feature", "properties": { "name": "Macon-Bibb County, GA", "population": 233334.0 }, "geometry": { "type": "Point", "coordinates": [ -83.638061480030629, 32.840033807853871 ] } },
{ "type": "Feature", "properties": { "name": "Topeka, KS", "population": 232995.0 }, "geometry": { "type": "Point", "coordinates": [ -95.677367136496741, 39.041950088243446 ] } },
{ "type": "Feature", "properties": { "name": "Barnstable Town, MA", "population": 229436.0 }, "geometry": { "type": "Point", "coordinates": [ -70.229636456240897, 41.705352697496743 ] } },
{ "type": "Feature", "properties": { "name": "Sherbrooke, QC", "population": 227398.0 }, "geometry": { "type": "Point", "coordinates": [ -71.889316896904148, 45.401552717546117 ] } },
{ "type": "Feature", "properties": { "name": "Bellingham, WA", "population": 226523.0 }, "geometry": { "type": "Point", "coordinates": [ -122.475619300511696, 48.750387128426553 ] } },
{ "type": "Feature", "properties": { "name": "Rochester, MN", "population": 225911.0 }, "geometry": { "type": "Point", "coordinates": [ -92.50022736197748, 44.024356991719941 ] } },
{ "type": "Feature", "properties": { "name": "Burlington-South Burlington, VT", "population": 225745.0 }, "geometry": { "type": "Point", "coordinates": [ -73.2153740723261, 44.475852701852411 ] } },
{ "type": "Feature", "properties": { "name": "Lafayette-West Lafayette, IN", "population": 224515.0 }, "geometry": { "type": "Point", "coordinates": [ -86.888322356177227, 40.416210323038229 ] } },
{ "type": "Feature", "properties": { "name": "Champaign-Urbana, IL", "population": 223223.0 }, "geometry": { "type": "Point", "coordinates": [ -88.236039149145512, 40.120208072136755 ] } },
{ "type": "Feature", "properties": { "name": "Medford, OR", "population": 222604.0 }, "geometry": { "type": "Point", "coordinates": [ -122.870066827145251, 42.324762028173119 ] } },
{ "type": "Feature", "properties": { "name": "Kelowna, BC", "population": 222162.0 }, "geometry": { "type": "Point", "coordinates": [ -119.495121371422726, 49.88736316483957 ] } },
{ "type": "Feature", "properties": { "name": "Charlottesville, VA", "population": 221648.0 }, "geometry": { "type": "Point", "coordinates": [ -78.485744925011076, 38.026552903509604 ] } },
{ "type": "Feature", "properties": { "name": "Lebanon, NH-VT Micro Area", "population": 221463.0 }, "geometry": { "type": "Point", "coordinates": [ -72.252886174738549, 43.644256032563867 ] } },
{ "type": "Feature", "properties": { "name": "Las Cruces, NM", "population": 219870.0 }, "geometry": { "type": "Point", "coordinates": [ -106.779631341086699, 32.312588239075325 ] } },
{ "type": "Feature", "properties": { "name": "Hilton Head Island-Bluffton, SC", "population": 218515.0 }, "geometry": { "type": "Point", "coordinates": [ -80.98142115030042, 32.480310422113071 ] } },
{ "type": "Feature", "properties": { "name": "Lake Charles, LA", "population": 216217.0 }, "geometry": { "type": "Point", "coordinates": [ -93.222786644850956, 30.234355960064235 ] } },
{ "type": "Feature", "properties": { "name": "Athens-Clarke County, GA", "population": 216194.0 }, "geometry": { "type": "Point", "coordinates": [ -83.375718596330017, 33.961170148666511 ] } },
{ "type": "Feature", "properties": { "name": "Lake Havasu City-Kingman, AZ", "population": 214229.0 }, "geometry": { "type": "Point", "coordinates": [ -114.045462288762025, 35.190448234439131 ] } },
{ "type": "Feature", "properties": { "name": "Chico, CA", "population": 213605.0 }, "geometry": { "type": "Point", "coordinates": [ -121.840581051543623, 39.722738423579301 ] } },
{ "type": "Feature", "properties": { "name": "Barrie, ON", "population": 212856.0 }, "geometry": { "type": "Point", "coordinates": [ -79.689125891404785, 44.388849755380306 ] } },
{ "type": "Feature", "properties": { "name": "St. John's, NL", "population": 212579.0 }, "geometry": { "type": "Point", "coordinates": [ -52.706491654377395, 47.566154474186646 ] } },
{ "type": "Feature", "properties": { "name": "Columbia, MO", "population": 211078.0 }, "geometry": { "type": "Point", "coordinates": [ -92.310726491729952, 38.947595015052585 ] } },
{ "type": "Feature", "properties": { "name": "Springfield, IL", "population": 208406.0 }, "geometry": { "type": "Point", "coordinates": [ -89.649341663039195, 39.799329294171748 ] } },
{ "type": "Feature", "properties": { "name": "Johnson City, TN", "population": 207442.0 }, "geometry": { "type": "Point", "coordinates": [ -82.367373023127413, 36.314799397794481 ] } },
{ "type": "Feature", "properties": { "name": "Elkhart-Goshen, IN", "population": 206841.0 }, "geometry": { "type": "Point", "coordinates": [ -85.837136748242671, 41.584520498208605 ] } },
{ "type": "Feature", "properties": { "name": "Houma-Thibodaux, LA", "population": 206082.0 }, "geometry": { "type": "Point", "coordinates": [ -90.724389309863554, 29.595734656022021 ] } },
{ "type": "Feature", "properties": { "name": "Monroe, LA", "population": 206072.0 }, "geometry": { "type": "Point", "coordinates": [ -92.11759747521846, 32.508322480452499 ] } },
{ "type": "Feature", "properties": { "name": "Gainesville, GA", "population": 204953.0 }, "geometry": { "type": "Point", "coordinates": [ -83.82895779114898, 34.297075629460778 ] } },
{ "type": "Feature", "properties": { "name": "Yuma, AZ", "population": 204374.0 }, "geometry": { "type": "Point", "coordinates": [ -114.624105103165761, 32.699778494597439 ] } },
{ "type": "Feature", "properties": { "name": "Jacksonville, NC", "population": 203686.0 }, "geometry": { "type": "Point", "coordinates": [ -77.433094104162194, 34.744090527744873 ] } },
{ "type": "Feature", "properties": { "name": "Hilo, HI Micro Area", "population": 202163.0 }, "geometry": { "type": "Point", "coordinates": [ -155.077490422582002, 19.717651165771223 ] } },
{ "type": "Feature", "properties": { "name": "Florence, SC", "population": 200040.0 }, "geometry": { "type": "Point", "coordinates": [ -79.767387592749586, 34.197875365257666 ] } },
{ "type": "Feature", "properties": { "name": "St. Cloud, MN", "population": 199922.0 }, "geometry": { "type": "Point", "coordinates": [ -94.181454523054796, 45.567400201475643 ] } },
{ "type": "Feature", "properties": { "name": "Bend, OR", "population": 199352.0 }, "geometry": { "type": "Point", "coordinates": [ -121.314999149457506, 44.056995085756341 ] } },
{ "type": "Feature", "properties": { "name": "Racine, WI", "population": 197068.0 }, "geometry": { "type": "Point", "coordinates": [ -87.810987859915599, 42.729402601009063 ] } },
{ "type": "Feature", "properties": { "name": "Abbotsford - Mission, BC", "population": 195726.0 }, "geometry": { "type": "Point", "coordinates": [ -122.32950985822778, 49.052054324760945 ] } },
{ "type": "Feature", "properties": { "name": "Warner Robins, GA", "population": 192171.0 }, "geometry": { "type": "Point", "coordinates": [ -83.603454546436112, 32.620283425524441 ] } },
{ "type": "Feature", "properties": { "name": "Punta Gorda, FL", "population": 189900.0 }, "geometry": { "type": "Point", "coordinates": [ -82.044747093810557, 26.93496447004112 ] } },
{ "type": "Feature", "properties": { "name": "Saginaw, MI", "population": 189821.0 }, "geometry": { "type": "Point", "coordinates": [ -83.953710204993939, 43.420689458468892 ] } },
{ "type": "Feature", "properties": { "name": "Torrington, CT Micro Area", "population": 185765.0 }, "geometry": { "type": "Point", "coordinates": [ -73.12463552970577, 41.799631722192466 ] } },
{ "type": "Feature", "properties": { "name": "Terre Haute, IN", "population": 185357.0 }, "geometry": { "type": "Point", "coordinates": [ -87.414124476275092, 39.461003187472038 ] } },
{ "type": "Feature", "properties": { "name": "Billings, MT", "population": 185147.0 }, "geometry": { "type": "Point", "coordinates": [ -108.503537915836844, 45.785046252056098 ] } },
{ "type": "Feature", "properties": { "name": "St. George, UT", "population": 183297.0 }, "geometry": { "type": "Point", "coordinates": [ -113.582548037239192, 37.102577668651065 ] } },
{ "type": "Feature", "properties": { "name": "Dover, DE", "population": 182400.0 }, "geometry": { "type": "Point", "coordinates": [ -75.528735947852354, 39.158148014765374 ] } },
{ "type": "Feature", "properties": { "name": "Kingston, NY", "population": 182153.0 }, "geometry": { "type": "Point", "coordinates": [ -73.995285974987297, 41.930572130571306 ] } },
{ "type": "Feature", "properties": { "name": "Redding, CA", "population": 181852.0 }, "geometry": { "type": "Point", "coordinates": [ -122.382384226959431, 40.585065196174256 ] } },
{ "type": "Feature", "properties": { "name": "Joplin, MO", "population": 181807.0 }, "geometry": { "type": "Point", "coordinates": [ -94.530035652567719, 37.074303633620801 ] } },
{ "type": "Feature", "properties": { "name": "Panama City, FL", "population": 181055.0 }, "geometry": { "type": "Point", "coordinates": [ -85.660334389918802, 30.160544140643562 ] } },
{ "type": "Feature", "properties": { "name": "Yuba City, CA", "population": 180806.0 }, "geometry": { "type": "Point", "coordinates": [ -121.617310512223938, 39.147940094933276 ] } },
{ "type": "Feature", "properties": { "name": "Bowling Green, KY", "population": 180624.0 }, "geometry": { "type": "Point", "coordinates": [ -86.441223101189493, 36.986966094813219 ] } },
{ "type": "Feature", "properties": { "name": "Jackson, TN", "population": 180446.0 }, "geometry": { "type": "Point", "coordinates": [ -88.828822431039313, 35.610017191818102 ] } },
{ "type": "Feature", "properties": { "name": "El Centro, CA", "population": 179578.0 }, "geometry": { "type": "Point", "coordinates": [ -115.580819364150656, 32.786789416980838 ] } },
{ "type": "Feature", "properties": { "name": "Abilene, TX", "population": 176656.0 }, "geometry": { "type": "Point", "coordinates": [ -99.717707792050504, 32.449694847479151 ] } },
{ "type": "Feature", "properties": { "name": "Muskegon, MI", "population": 175947.0 }, "geometry": { "type": "Point", "coordinates": [ -86.256187641728275, 43.226996134839311 ] } },
{ "type": "Feature", "properties": { "name": "Iowa City, IA", "population": 175894.0 }, "geometry": { "type": "Point", "coordinates": [ -91.535977720290575, 41.672762062422294 ] } },
{ "type": "Feature", "properties": { "name": "Auburn-Opelika, AL", "population": 175126.0 }, "geometry": { "type": "Point", "coordinates": [ -85.355478865470062, 32.601135727617944 ] } },
{ "type": "Feature", "properties": { "name": "Midland, TX", "population": 174621.0 }, "geometry": { "type": "Point", "coordinates": [ -102.083743144709743, 31.994332692594156 ] } },
{ "type": "Feature", "properties": { "name": "Coeur d'Alene, ID", "population": 173396.0 }, "geometry": { "type": "Point", "coordinates": [ -116.776659134556226, 47.671946192896364 ] } },
{ "type": "Feature", "properties": { "name": "Kingston, ON", "population": 172546.0 }, "geometry": { "type": "Point", "coordinates": [ -76.486216975511979, 44.230717150595105 ] } },
{ "type": "Feature", "properties": { "name": "Hattiesburg, MS", "population": 172176.0 }, "geometry": { "type": "Point", "coordinates": [ -89.293783329172641, 31.3219701098289 ] } },
{ "type": "Feature", "properties": { "name": "Eau Claire, WI", "population": 171951.0 }, "geometry": { "type": "Point", "coordinates": [ -91.50220805121846, 44.815293177681532 ] } },
{ "type": "Feature", "properties": { "name": "Burlington, NC", "population": 171779.0 }, "geometry": { "type": "Point", "coordinates": [ -79.442528958039418, 36.093201337916447 ] } },
{ "type": "Feature", "properties": { "name": "Bloomington, IL", "population": 171284.0 }, "geometry": { "type": "Point", "coordinates": [ -89.013020625978044, 40.484595749371991 ] } },
{ "type": "Feature", "properties": { "name": "Oshkosh-Neenah, WI", "population": 171197.0 }, "geometry": { "type": "Point", "coordinates": [ -88.540524347142693, 44.020343319916591 ] } },
{ "type": "Feature", "properties": { "name": "Greenville, NC", "population": 171196.0 }, "geometry": { "type": "Point", "coordinates": [ -77.379509174725456, 35.610924780267077 ] } },
{ "type": "Feature", "properties": { "name": "Greater Sudbury, ON", "population": 170605.0 }, "geometry": { "type": "Point", "coordinates": [ -80.991545123202712, 46.49254799537632 ] } },
{ "type": "Feature", "properties": { "name": "Waterloo-Cedar Falls, IA", "population": 168404.0 }, "geometry": { "type": "Point", "coordinates": [ -92.34421707262787, 42.494635002918152 ] } },
{ "type": "Feature", "properties": { "name": "Pueblo, CO", "population": 168135.0 }, "geometry": { "type": "Point", "coordinates": [ -104.616985801106694, 38.263540983243892 ] } },
{ "type": "Feature", "properties": { "name": "East Stroudsburg, PA", "population": 168128.0 }, "geometry": { "type": "Point", "coordinates": [ -75.195295351787081, 40.986365720693598 ] } },
{ "type": "Feature", "properties": { "name": "Blacksburg-Christiansburg, VA", "population": 166304.0 }, "geometry": { "type": "Point", "coordinates": [ -80.415011700863857, 37.228680264292869 ] } },
{ "type": "Feature", "properties": { "name": "Wausau-Weston, WI", "population": 166222.0 }, "geometry": { "type": "Point", "coordinates": [ -89.635666342505786, 44.961612497297232 ] } },
{ "type": "Feature", "properties": { "name": "Guelph, ON", "population": 165588.0 }, "geometry": { "type": "Point", "coordinates": [ -80.246945627030129, 43.544337799056557 ] } },
{ "type": "Feature", "properties": { "name": "Kahului-Wailuku-Lahaina, HI", "population": 164765.0 }, "geometry": { "type": "Point", "coordinates": [ -156.470339552629525, 20.887596822909373 ] } },
{ "type": "Feature", "properties": { "name": "Janesville-Beloit, WI", "population": 163817.0 }, "geometry": { "type": "Point", "coordinates": [ -89.028370475556244, 42.681411987161248 ] } },
{ "type": "Feature", "properties": { "name": "Tupelo, MS Micro Area", "population": 163378.0 }, "geometry": { "type": "Point", "coordinates": [ -88.710489045199907, 34.257409556146548 ] } },
{ "type": "Feature", "properties": { "name": "Odessa, TX", "population": 162300.0 }, "geometry": { "type": "Point", "coordinates": [ -102.360598613466166, 31.846516294552668 ] } },
{ "type": "Feature", "properties": { "name": "Saguenay, QC", "population": 161567.0 }, "geometry": { "type": "Point", "coordinates": [ -71.066109503125972, 48.428696615050299 ] } },
{ "type": "Feature", "properties": { "name": "Trois-Rivieres, QC", "population": 161489.0 }, "geometry": { "type": "Point", "coordinates": [ -72.543212736479319, 46.342746830416722 ] } },
{ "type": "Feature", "properties": { "name": "Bloomington, IN", "population": 161426.0 }, "geometry": { "type": "Point", "coordinates": [ -86.534123243782659, 39.165574067245288 ] } },
{ "type": "Feature", "properties": { "name": "Sebastian-Vero Beach, FL", "population": 160986.0 }, "geometry": { "type": "Point", "coordinates": [ -80.397013756467942, 27.638733629700226 ] } },
{ "type": "Feature", "properties": { "name": "Jackson, MI", "population": 160637.0 }, "geometry": { "type": "Point", "coordinates": [ -84.403041552944515, 42.246273295478836 ] } },
{ "type": "Feature", "properties": { "name": "State College, PA", "population": 158665.0 }, "geometry": { "type": "Point", "coordinates": [ -77.856149910646948, 40.802557837870054 ] } },
{ "type": "Feature", "properties": { "name": "Idaho Falls, ID", "population": 158478.0 }, "geometry": { "type": "Point", "coordinates": [ -112.037337962547255, 43.489242451955157 ] } },
{ "type": "Feature", "properties": { "name": "Moncton, NB", "population": 157717.0 }, "geometry": { "type": "Point", "coordinates": [ -64.7859889528536, 46.083292763640806 ] } }
]
}
